[
  {
    "pmaid": "390",
    "locid": "2404",
    "name": "Pratt Park",
    "address": "1800 S Main St",
    "zip_code": "98144",
    "x_coord": "-122.307257",
    "y_coord": "47.601407",
    "location_1": {
      "latitude": "47.601407",
      "longitude": "-122.307257"
    },
    "features": [
      "Art in the Park",
      "Basketball Courts",
      "Grills",
      "Picnic Sites",
      "Play Area",
      "Restrooms",
      "Spray Parks"
    ],
    "feature_count": 7,
    "has_features": true
  },
  {
    "pmaid": "281",
    "locid": "2545",
    "name": "12th and Howe Play Park",
    "address": "1200 W Howe St",
    "zip_code": "98119",
    "x_coord": "-122.372985",
    "y_coord": "47.636097",
    "location_1": {
      "latitude": "47.636097",
      "longitude": "-122.372985"
    },
    "features": [
      "Play Area"
    ],
    "feature_count": 1,
    "has_features": true
  },
  {
    "pmaid": "4159",
    "locid": "2387",
    "name": "12th Ave S Viewpoint",
    "address": "2821 12TH Ave S",
    "zip_code": "98144",
    "x_coord": "-122.317765",
    "y_coord": "47.577953",
    "location_1": {
      "latitude": "47.577953",
      "longitude": "-122.317765"
    },
    "features": [
      "Views"
    ],
    "feature_count": 1,
    "has_features": true
  },
  {
    "pmaid": "4467",
    "locid": "2382",
    "name": "12th Ave Square Park",
    "address": "564 12th Ave",
    "zip_code": "98122",
    "x_coord": "-122.316455",
    "y_coord": "47.607427",
    "location_1": {
      "latitude": "47.607427",
      "longitude": "-122.316455"
    },
    "features": [],
    "feature_count": 0,
    "has_features": false
  },
  {
    "pmaid": "4010",
    "locid": "2546",
    "name": "14th Ave NW Boat Ramp",
    "address": "4400 14th Ave NW",
    "zip_code": "98107",
    "x_coord": "-122.373536",
    "y_coord": "47.660775",
    "location_1": {
      "latitude": "47.660775",
      "longitude": "-122.373536"
    },
    "features": [
      "Motorized Boat Launches"
    ],
    "feature_count": 1,
    "has_features": true
  },
  {
    "pmaid": "296",
    "locid": "296",
    "name": "3001 E Madison",
    "address": "3001 E Madison St",
    "zip_code": "98112",
    "x_coord": "-122.293173",
    "y_coord": "47.625169",
    "location_1": {
      "latitude": "47.625169",
      "longitude": "-122.293173"
    },
    "features": [],
    "feature_count": 0,
    "has_features": false
  },
  {
    "pmaid": "1000001",
    "locid": "0",
    "name": "32nd Ave W Boat Launch",
    "address": "32nd Ave W",
    "zip_code": "98199",
    "x_coord": "-122.398685",
    "y_coord": "47.632345",
    "location_1": {
      "latitude": "47.632345",
      "longitude": "-122.398685"
    },
    "features": [],
    "feature_count": 0,
    "has_features": false
  },
  {
    "pmaid": "3158",
    "locid": "2378",
    "name": "6th Ave NW Pocket Park",
    "address": "606  NW 76th St",
    "zip_code": "98117",
    "x_coord": "-122.363566",
    "y_coord": "47.684202",
    "location_1": {
      "latitude": "47.684202",
      "longitude": "-122.363566"
    },
    "features": [
      "Play Area"
    ],
    "feature_count": 1,
    "has_features": true
  },
  {
    "pmaid": "4404",
    "locid": "2533",
    "name": "A. B. Ernst Park",
    "address": "723 N 35th St",
    "zip_code": "98103",
    "x_coord": "-122.348826",
    "y_coord": "47.650087",
    "location_1": {
      "latitude": "47.650087",
      "longitude": "-122.348826"
    },
    "features": [
      "Art in the Park",
      "Views"
    ],
    "feature_count": 2,
    "has_features": true
  },
  {
    "pmaid": "1000002",
    "locid": "0",
    "name": "Adams Street Boat Ramp",
    "address": "Lake Washington Blvd S & S Adams St",
    "zip_code": "98118",
    "x_coord": "-122.267178",
    "y_coord": "47.565219",
    "location_1": {
      "latitude": "47.565219",
      "longitude": "-122.267178"
    },
    "features": [],
    "feature_count": 0,
    "has_features": false
  },
  {
    "pmaid": "244",
    "locid": "1886",
    "name": "Albert Davis Park",
    "address": "12526 27th Ave NE",
    "zip_code": "98125",
    "x_coord": "-122.298752",
    "y_coord": "47.72016",
    "location_1": {
      "latitude": "47.72016",
      "longitude": "-122.298752"
    },
    "features": [
      "Art in the Park",
      "Drinking fountains",
      "Play Area"
    ],
    "feature_count": 3,
    "has_features": true
  },
  {
    "pmaid": "445",
    "locid": "1888",
    "name": "Alki Beach Park",
    "address": "1702 Alki Ave SW",
    "zip_code": "98116",
    "x_coord": "-122.402173",
    "y_coord": "47.582912",
    "location_1": {
      "latitude": "47.582912",
      "longitude": "-122.402173"
    },
    "features": [
      "Art in the Park",
      "Drinking fountains",
      "Fire Pits",
      "Grills",
      "Hand Carry Boat Launches",
      "Restrooms"
    ],
    "feature_count": 6,
    "has_features": true
  },
  {
    "pmaid": "446",
    "locid": "1049",
    "name": "Alki Playground",
    "address": "5817 SW Lander St",
    "zip_code": "98116",
    "x_coord": "-122.407312",
    "y_coord": "47.578497",
    "location_1": {
      "latitude": "47.578497",
      "longitude": "-122.407312"
    },
    "features": [
      "Art in the Park",
      "Baseball/Softball Fields",
      "Basketball Courts",
      "Picnic Sites",
      "Play Area",
      "Restrooms",
      "Soccer Fields",
      "Tennis Courts"
    ],
    "feature_count": 8,
    "has_features": true
  },
  {
    "pmaid": "3914",
    "locid": "1891",
    "name": "Alvin Larkins Park",
    "address": "1504 34th Ave",
    "zip_code": "98122",
    "x_coord": "-122.288745",
    "y_coord": "47.614318",
    "location_1": {
      "latitude": "47.614318",
      "longitude": "-122.288745"
    },
    "features": [],
    "feature_count": 0,
    "has_features": false
  },
  {
    "pmaid": "426",
    "locid": "1892",
    "name": "Amy Yee Tennis Center",
    "address": "2000 Martin Luther King Jr Way S",
    "zip_code": "98144",
    "x_coord": "-122.29742",
    "y_coord": "47.584876",
    "location_1": {
      "latitude": "47.584876",
      "longitude": "-122.29742"
    },
    "features": [
      "Drinking fountains",
      "Tennis Courts"
    ],
    "feature_count": 2,
    "has_features": true
  },
  {
    "pmaid": "2927",
    "locid": "1894",
    "name": "Andover Place",
    "address": "4000 Beach Dr SW",
    "zip_code": "98116",
    "x_coord": "-122.409993",
    "y_coord": "47.568517",
    "location_1": {
      "latitude": "47.568517",
      "longitude": "-122.409993"
    },
    "features": [
      "Views"
    ],
    "feature_count": 1,
    "has_features": true
  },
  {
    "pmaid": "1556",
    "locid": "1898",
    "name": "Arapahoe Triangle",
    "address": "3431 Arapahoe Pl W",
    "zip_code": "98199",
    "x_coord": "-122.409139",
    "y_coord": "47.65129",
    "location_1": {
      "latitude": "47.65129",
      "longitude": "-122.409139"
    },
    "features": [],
    "feature_count": 0,
    "has_features": false
  },
  {
    "pmaid": "485",
    "locid": "1907",
    "name": "Arroyos Natural Area",
    "address": "4120 Arroyo Dr SW",
    "zip_code": "98146",
    "x_coord": "-122.387822",
    "y_coord": "47.505679",
    "location_1": {
      "latitude": "47.505679",
      "longitude": "-122.387822"
    },
    "features": [],
    "feature_count": 0,
    "has_features": false
  },
  {
    "pmaid": "4081",
    "locid": "1908",
    "name": "Atlantic City Boat Ramp",
    "address": "8702 Seward Park Ave S",
    "zip_code": "98118",
    "x_coord": "-122.263078",
    "y_coord": "47.522834",
    "location_1": {
      "latitude": "47.522834",
      "longitude": "-122.263078"
    },
    "features": [
      "Motorized Boat Launches",
      "Restrooms"
    ],
    "feature_count": 2,
    "has_features": true
  },
  {
    "pmaid": "4243",
    "locid": "2541",
    "name": "Atlantic Street Park",
    "address": "1501 21st Ave S",
    "zip_code": "98144",
    "x_coord": "-122.30566",
    "y_coord": "47.589165",
    "location_1": {
      "latitude": "47.589165",
      "longitude": "-122.30566"
    },
    "features": [
      "Adult Fitness Equipment",
      "Play Area"
    ],
    "feature_count": 2,
    "has_features": true
  },
  {
    "pmaid": "241",
    "locid": "2552",
    "name": "B.F. Day Playground",
    "address": "4020 Fremont Ave N",
    "zip_code": "98103",
    "x_coord": "-122.349222",
    "y_coord": "47.65603",
    "location_1": {
      "latitude": "47.65603",
      "longitude": "-122.349222"
    },
    "features": [
      "Baseball/Softball Fields",
      "Basketball Courts",
      "Drinking fountains",
      "Play Area",
      "Soccer Fields"
    ],
    "feature_count": 5,
    "has_features": true
  },
  {
    "pmaid": "4006",
    "locid": "1910",
    "name": "Bagley Viewpoint",
    "address": "2548 Delmar Dr E",
    "zip_code": "98102",
    "x_coord": "-122.318347",
    "y_coord": "47.643015",
    "location_1": {
      "latitude": "47.643015",
      "longitude": "-122.318347"
    },
    "features": [
      "Views"
    ],
    "feature_count": 1,
    "has_features": true
  },
  {
    "pmaid": "2840",
    "locid": "1911",
    "name": "Baker Park on Crown Hill",
    "address": "8347 14th Ave NW",
    "zip_code": "98117",
    "x_coord": "-122.374794",
    "y_coord": "47.690119",
    "location_1": {
      "latitude": "47.690119",
      "longitude": "-122.374794"
    },
    "features": [
      "Drinking fountains",
      "Play Area"
    ],
    "feature_count": 2,
    "has_features": true
  },
  {
    "pmaid": "4278",
    "locid": "1913",
    "name": "Ballard Commons Park",
    "address": "5701 22nd Ave NW",
    "zip_code": "98107",
    "x_coord": "-122.385487",
    "y_coord": "47.670549",
    "location_1": {
      "latitude": "47.670549",
      "longitude": "-122.385487"
    },
    "features": [
      "Art in the Park",
      "Drinking fountains",
      "Skate Park",
      "Spray Parks"
    ],
    "feature_count": 4,
    "has_features": true
  },
  {
    "pmaid": "4428",
    "locid": "1914",
    "name": "Ballard Corners Park",
    "address": "1702 nw 62nd St",
    "zip_code": "98107",
    "x_coord": "-122.379116",
    "y_coord": "47.674186",
    "location_1": {
      "latitude": "47.674186",
      "longitude": "-122.379116"
    },
    "features": [
      "Play Area"
    ],
    "feature_count": 1,
    "has_features": true
  },
  {
    "pmaid": "497",
    "locid": "1108",
    "name": "Ballard Playground",
    "address": "2644 NW 60th St",
    "zip_code": "98107",
    "x_coord": "-122.39155",
    "y_coord": "47.672786",
    "location_1": {
      "latitude": "47.672786",
      "longitude": "-122.39155"
    },
    "features": [
      "Art in the Park",
      "Baseball/Softball Fields",
      "Drinking fountains",
      "Play Area",
      "Soccer Fields"
    ],
    "feature_count": 5,
    "has_features": true
  },
  {
    "pmaid": "4073",
    "locid": "2553",
    "name": "Banner Way Triangle",
    "address": "7802 Banner Way NE",
    "zip_code": "98115",
    "x_coord": "-122.32343",
    "y_coord": "47.685762",
    "location_1": {
      "latitude": "47.685762",
      "longitude": "-122.32343"
    },
    "features": [],
    "feature_count": 0,
    "has_features": false
  },
  {
    "pmaid": "3703",
    "locid": "1919",
    "name": "Bar-S Playground",
    "address": "6425 SW Admiral Way",
    "zip_code": "98116",
    "x_coord": "-122.416054",
    "y_coord": "47.575195",
    "location_1": {
      "latitude": "47.575195",
      "longitude": "-122.416054"
    },
    "features": [
      "Baseball/Softball Fields",
      "Grills"
    ],
    "feature_count": 2,
    "has_features": true
  },
  {
    "pmaid": "303",
    "locid": "1110",
    "name": "Bayview Playground",
    "address": "2614 24th Ave W",
    "zip_code": "98199",
    "x_coord": "-122.386786",
    "y_coord": "47.643802",
    "location_1": {
      "latitude": "47.643802",
      "longitude": "-122.386786"
    },
    "features": [
      "Baseball/Softball Fields",
      "Basketball Courts",
      "Play Area",
      "Restrooms",
      "Soccer Fields",
      "Views"
    ],
    "feature_count": 6,
    "has_features": true
  },
  {
    "pmaid": "1000342",
    "locid": "0",
    "name": "Bayview-Kinnear (Lower Kerry Park)",
    "address": "3rd Ave W & W Prospect St",
    "zip_code": "98119",
    "x_coord": "-122.360626",
    "y_coord": "47.628948",
    "location_1": {
      "latitude": "47.628948",
      "longitude": "-122.360626"
    },
    "features": [],
    "feature_count": 0,
    "has_features": false
  },
  {
    "pmaid": "400",
    "locid": "1074",
    "name": "Beacon Hill Playground",
    "address": "1902 13th Ave S",
    "zip_code": "98144",
    "x_coord": "-122.315325",
    "y_coord": "47.586226",
    "location_1": {
      "latitude": "47.586226",
      "longitude": "-122.315325"
    },
    "features": [
      "Baseball/Softball Fields",
      "Basketball Courts",
      "Drinking fountains",
      "Play Area",
      "Restrooms",
      "Soccer Fields",
      "Tennis Courts"
    ],
    "feature_count": 7,
    "has_features": true
  },
  {
    "pmaid": "3119",
    "locid": "1923",
    "name": "Beacon Place",
    "address": "1110 S Dearborn St",
    "zip_code": "98104",
    "x_coord": "-122.318716",
    "y_coord": "47.596236",
    "location_1": {
      "latitude": "47.596236",
      "longitude": "-122.318716"
    },
    "features": [],
    "feature_count": 0,
    "has_features": false
  },
  {
    "pmaid": "4481",
    "locid": "1075",
    "name": "Beaver Pond Natural Area on Thornton Creek",
    "address": "5th Ave NE & NE 103rd St",
    "zip_code": "98125",
    "x_coord": "-122.323168",
    "y_coord": "47.703288",
    "location_1": {
      "latitude": "47.703288",
      "longitude": "-122.323168"
    },
    "features": [],
    "feature_count": 0,
    "has_features": false
  },
  {
    "pmaid": "4028",
    "locid": "0",
    "name": "Beck Place",
    "address": "5809 15th Ave NE",
    "zip_code": "98105",
    "x_coord": "-122.312027",
    "y_coord": "47.671888",
    "location_1": {
      "latitude": "47.671888",
      "longitude": "-122.312027"
    },
    "features": [],
    "feature_count": 0,
    "has_features": false
  },
  {
    "pmaid": "440",
    "locid": "1925",
    "name": "Beer Sheva Park",
    "address": "8650 55th Ave S",
    "zip_code": "98118",
    "x_coord": "-122.263223",
    "y_coord": "47.524191",
    "location_1": {
      "latitude": "47.524191",
      "longitude": "-122.263223"
    },
    "features": [
      "Drinking fountains",
      "Grills",
      "Hand Carry Boat Launches",
      "Picnic Sites",
      "Play Area",
      "Restrooms",
      "Views"
    ],
    "feature_count": 7,
    "has_features": true
  },
  {
    "pmaid": "4472",
    "locid": "2543",
    "name": "Bell Street Park",
    "address": "1st to 5th Ave on Bell St",
    "zip_code": "98121",
    "x_coord": "-122.344866",
    "y_coord": "47.614696",
    "location_1": {
      "latitude": "47.614696",
      "longitude": "-122.344866"
    },
    "features": [],
    "feature_count": 0,
    "has_features": false
  },
  {
    "pmaid": "4022",
    "locid": "1182",
    "name": "Bellevue Place",
    "address": "Bellevue Ave E & Bellevue Pl E",
    "zip_code": "98102",
    "x_coord": "-122.327658",
    "y_coord": "47.626904",
    "location_1": {
      "latitude": "47.626904",
      "longitude": "-122.327658"
    },
    "features": [],
    "feature_count": 0,
    "has_features": false
  },
  {
    "pmaid": "4415",
    "locid": "1186",
    "name": "Belltown Cottage Park",
    "address": "2512 Elliott Ave",
    "zip_code": "98121",
    "x_coord": "-122.350776",
    "y_coord": "47.613889",
    "location_1": {
      "latitude": "47.613889",
      "longitude": "-122.350776"
    },
    "features": [],
    "feature_count": 0,
    "has_features": false
  },
  {
    "pmaid": "346",
    "locid": "1290",
    "name": "Belmont Place",
    "address": "703 Belmont Pl E",
    "zip_code": "98102",
    "x_coord": "-122.324408",
    "y_coord": "47.625727",
    "location_1": {
      "latitude": "47.625727",
      "longitude": "-122.324408"
    },
    "features": [],
    "feature_count": 0,
    "has_features": false
  },
  {
    "pmaid": "447",
    "locid": "1188",
    "name": "Belvedere Park",
    "address": "3600 SW Admiral Way",
    "zip_code": "98126",
    "x_coord": "-122.376896",
    "y_coord": "47.580673",
    "location_1": {
      "latitude": "47.580673",
      "longitude": "-122.376896"
    },
    "features": [
      "Art in the Park"
    ],
    "feature_count": 1,
    "has_features": true
  },
  {
    "pmaid": "475",
    "locid": "1189",
    "name": "Belvoir Place",
    "address": "3659 42nd Ave NE",
    "zip_code": "98105",
    "x_coord": "-122.283215",
    "y_coord": "47.655124",
    "location_1": {
      "latitude": "47.655124",
      "longitude": "-122.283215"
    },
    "features": [
      "Hand Carry Boat Launches"
    ],
    "feature_count": 1,
    "has_features": true
  },
  {
    "pmaid": "436",
    "locid": "1077",
    "name": "Benefit Playground",
    "address": "9320 38th Ave S",
    "zip_code": "98118",
    "x_coord": "-122.284294",
    "y_coord": "47.518998",
    "location_1": {
      "latitude": "47.518998",
      "longitude": "-122.284294"
    },
    "features": [
      "Art in the Park",
      "Basketball Courts",
      "Drinking fountains",
      "Grills",
      "Picnic Sites",
      "Play Area",
      "Skate Park",
      "Views"
    ],
    "feature_count": 8,
    "has_features": true
  },
  {
    "pmaid": "4245",
    "locid": "1190",
    "name": "Benvenuto Viewpoint",
    "address": "1401 23rd Ave S",
    "zip_code": "98122",
    "x_coord": "-122.303029",
    "y_coord": "47.589841",
    "location_1": {
      "latitude": "47.589841",
      "longitude": "-122.303029"
    },
    "features": [
      "Views"
    ],
    "feature_count": 1,
    "has_features": true
  },
  {
    "pmaid": "253",
    "locid": "1191",
    "name": "Bergen Place",
    "address": "5420 22nd Ave NW",
    "zip_code": "98107",
    "x_coord": "-122.384495",
    "y_coord": "47.66833",
    "location_1": {
      "latitude": "47.66833",
      "longitude": "-122.384495"
    },
    "features": [
      "Art in the Park"
    ],
    "feature_count": 1,
    "has_features": true
  },
  {
    "pmaid": "304",
    "locid": "1193",
    "name": "Bhy Kracke Park",
    "address": "1215 5th Ave N",
    "zip_code": "98109",
    "x_coord": "-122.348403",
    "y_coord": "47.630426",
    "location_1": {
      "latitude": "47.630426",
      "longitude": "-122.348403"
    },
    "features": [
      "Drinking fountains",
      "Play Area",
      "Trails",
      "Views"
    ],
    "feature_count": 4,
    "has_features": true
  },
  {
    "pmaid": "288",
    "locid": "1113",
    "name": "Bitter Lake Playfield",
    "address": "13035 Linden Ave N",
    "zip_code": "98133",
    "x_coord": "-122.349314",
    "y_coord": "47.724209",
    "location_1": {
      "latitude": "47.724209",
      "longitude": "-122.349314"
    },
    "features": [
      "Baseball/Softball Fields",
      "Drinking fountains",
      "Play Area",
      "Restrooms",
      "Soccer Fields",
      "Tennis Courts"
    ],
    "feature_count": 6,
    "has_features": true
  },
  {
    "pmaid": "4450",
    "locid": "1194",
    "name": "Bitter Lake Reservoir Open Space",
    "address": "14201 Linden Ave N",
    "zip_code": "98133",
    "x_coord": "-122.348583",
    "y_coord": "47.731181",
    "location_1": {
      "latitude": "47.731181",
      "longitude": "-122.348583"
    },
    "features": [
      "Adult Fitness Equipment",
      "Art in the Park",
      "Play Area"
    ],
    "feature_count": 3,
    "has_features": true
  },
  {
    "pmaid": "3907",
    "locid": "1196",
    "name": "Blaine Place",
    "address": "513 W Olympic Pl",
    "zip_code": "98119",
    "x_coord": "-122.364152",
    "y_coord": "47.626809",
    "location_1": {
      "latitude": "47.626809",
      "longitude": "-122.364152"
    },
    "features": [],
    "feature_count": 0,
    "has_features": false
  },
  {
    "pmaid": "4418",
    "locid": "1198",
    "name": "Blue Dog Pond",
    "address": "1520 26th Ave S",
    "zip_code": "98144",
    "x_coord": "-122.297814",
    "y_coord": "47.589982",
    "location_1": {
      "latitude": "47.589982",
      "longitude": "-122.297814"
    },
    "features": [
      "Art in the Park",
      "Dog Off Leash Areas"
    ],
    "feature_count": 2,
    "has_features": true
  },
  {
    "pmaid": "238",
    "locid": "1199",
    "name": "Blue Ridge Circle",
    "address": "1851 NW Blue Ridge Dr",
    "zip_code": "98117",
    "x_coord": "-122.380095",
    "y_coord": "47.70439",
    "location_1": {
      "latitude": "47.70439",
      "longitude": "-122.380095"
    },
    "features": [],
    "feature_count": 0,
    "has_features": false
  },
  {
    "pmaid": "239",
    "locid": "1200",
    "name": "Blue Ridge Place",
    "address": "Radford Ave NW & NW Milford Way",
    "zip_code": "98117",
    "x_coord": "-122.381171",
    "y_coord": "47.703423",
    "location_1": {
      "latitude": "47.703423",
      "longitude": "-122.381171"
    },
    "features": [],
    "feature_count": 0,
    "has_features": false
  },
  {
    "pmaid": "348",
    "locid": "0",
    "name": "Boren Place",
    "address": "321 Broadway",
    "zip_code": "98122",
    "x_coord": "-122.320952",
    "y_coord": "47.604999",
    "location_1": {
      "latitude": "47.604999",
      "longitude": "-122.320952"
    },
    "features": [],
    "feature_count": 0,
    "has_features": false
  },
  {
    "pmaid": "349",
    "locid": "1202",
    "name": "Boylston Place",
    "address": "815 Broadway",
    "zip_code": "98104",
    "x_coord": "-122.32094",
    "y_coord": "47.609976",
    "location_1": {
      "latitude": "47.609976",
      "longitude": "-122.32094"
    },
    "features": [],
    "feature_count": 0,
    "has_features": false
  },
  {
    "pmaid": "401",
    "locid": "1203",
    "name": "Bradner Gardens Park",
    "address": "1730 Bradner Pl S",
    "zip_code": "98144",
    "x_coord": "-122.295426",
    "y_coord": "47.587419",
    "location_1": {
      "latitude": "47.587419",
      "longitude": "-122.295426"
    },
    "features": [
      "Basketball Courts",
      "Play Area",
      "Restrooms",
      "Views"
    ],
    "feature_count": 4,
    "has_features": true
  },
  {
    "pmaid": "402",
    "locid": "1115",
    "name": "Brighton Playfield",
    "address": "6000 39th Ave S",
    "zip_code": "98118",
    "x_coord": "-122.2821",
    "y_coord": "47.548387",
    "location_1": {
      "latitude": "47.548387",
      "longitude": "-122.2821"
    },
    "features": [
      "Baseball/Softball Fields",
      "Basketball Courts",
      "Drinking fountains",
      "Grills",
      "Play Area",
      "Restrooms",
      "Soccer Fields",
      "Tennis Courts"
    ],
    "feature_count": 8,
    "has_features": true
  },
  {
    "pmaid": "3997",
    "locid": "1207",
    "name": "Broadview Park",
    "address": "Greenwood Ave N & N 122nd St",
    "zip_code": "98133",
    "x_coord": "-122.355836",
    "y_coord": "47.717936",
    "location_1": {
      "latitude": "47.717936",
      "longitude": "-122.355836"
    },
    "features": [],
    "feature_count": 0,
    "has_features": false
  },
  {
    "pmaid": "482",
    "locid": "1082",
    "name": "Bryant Neighborhood Playground",
    "address": "4103 NE 65th St",
    "zip_code": "98115",
    "x_coord": "-122.283644",
    "y_coord": "47.675299",
    "location_1": {
      "latitude": "47.675299",
      "longitude": "-122.283644"
    },
    "features": [
      "Basketball Courts",
      "Drinking fountains",
      "Play Area",
      "Tennis Courts"
    ],
    "feature_count": 4,
    "has_features": true
  },
  {
    "pmaid": "496",
    "locid": "1083",
    "name": "Burke-Gilman Playground Park",
    "address": "5201 Sand Point Way NE",
    "zip_code": "98105",
    "x_coord": "-122.282623",
    "y_coord": "47.666634",
    "location_1": {
      "latitude": "47.666634",
      "longitude": "-122.282623"
    },
    "features": [
      "Art in the Park",
      "Basketball Courts",
      "Play Area",
      "Restrooms"
    ],
    "feature_count": 4,
    "has_features": true
  },
  {
    "pmaid": "3102",
    "locid": "1211",
    "name": "Cal Anderson Park and Bobby Morris Playfield",
    "address": "1635 11th Ave",
    "zip_code": "98122",
    "x_coord": "-122.319134",
    "y_coord": "47.617013",
    "location_1": {
      "latitude": "47.617013",
      "longitude": "-122.319134"
    },
    "features": [
      "Art in the Park",
      "Baseball/Softball Fields",
      "Drinking fountains",
      "Play Area",
      "Restrooms",
      "Soccer Fields",
      "Tennis Courts"
    ],
    "feature_count": 7,
    "has_features": true
  },
  {
    "pmaid": "448",
    "locid": "1212",
    "name": "California Place",
    "address": "2099 California Ave SW",
    "zip_code": "98116",
    "x_coord": "-122.386696",
    "y_coord": "47.585641",
    "location_1": {
      "latitude": "47.585641",
      "longitude": "-122.386696"
    },
    "features": [],
    "feature_count": 0,
    "has_features": false
  },
  {
    "pmaid": "4154",
    "locid": "1213",
    "name": "Camp Long",
    "address": "5200 35th Ave SW",
    "zip_code": "98126",
    "x_coord": "-122.373161",
    "y_coord": "47.556242",
    "location_1": {
      "latitude": "47.556242",
      "longitude": "-122.373161"
    },
    "features": [
      "Drinking fountains",
      "Grills",
      "Restrooms",
      "Trails"
    ],
    "feature_count": 4,
    "has_features": true
  },
  {
    "pmaid": "240",
    "locid": "1227",
    "name": "Carkeek Park",
    "address": "950 NW Carkeek Park Rd",
    "zip_code": "98117",
    "x_coord": "-122.379763",
    "y_coord": "47.712194",
    "location_1": {
      "latitude": "47.712194",
      "longitude": "-122.379763"
    },
    "features": [
      "Drinking fountains",
      "Grills",
      "Hand Carry Boat Launches",
      "Picnic Sites",
      "Play Area",
      "Restrooms",
      "Trails",
      "Views"
    ],
    "feature_count": 8,
    "has_features": true
  },
  {
    "pmaid": "305",
    "locid": "1232",
    "name": "Carleton Center",
    "address": "2319 Westmont Way W",
    "zip_code": "98199",
    "x_coord": "-122.406385",
    "y_coord": "47.639414",
    "location_1": {
      "latitude": "47.639414",
      "longitude": "-122.406385"
    },
    "features": [],
    "feature_count": 0,
    "has_features": false
  },
  {
    "pmaid": "4049",
    "locid": "1233",
    "name": "Carleton Highlands",
    "address": "3298 Perkins Ln W",
    "zip_code": "98199",
    "x_coord": "-122.415934",
    "y_coord": "47.650028",
    "location_1": {
      "latitude": "47.650028",
      "longitude": "-122.415934"
    },
    "features": [],
    "feature_count": 0,
    "has_features": false
  },
  {
    "pmaid": "3902",
    "locid": "1235",
    "name": "Cascade Place",
    "address": "5119 Palmer Ct NW",
    "zip_code": "98107",
    "x_coord": "-122.358092",
    "y_coord": "47.666216",
    "location_1": {
      "latitude": "47.666216",
      "longitude": "-122.358092"
    },
    "features": [],
    "feature_count": 0,
    "has_features": false
  },
  {
    "pmaid": "350",
    "locid": "1117",
    "name": "Cascade Playground",
    "address": "333 Pontius Ave N",
    "zip_code": "98109",
    "x_coord": "-122.332355",
    "y_coord": "47.621405",
    "location_1": {
      "latitude": "47.621405",
      "longitude": "-122.332355"
    },
    "features": [
      "Basketball Courts",
      "Play Area",
      "Restrooms"
    ],
    "feature_count": 3,
    "has_features": true
  },
  {
    "pmaid": "4167",
    "locid": "1237",
    "name": "Cedar Park",
    "address": "3737 NE 135th St",
    "zip_code": "98125",
    "x_coord": "-122.288042",
    "y_coord": "47.725808",
    "location_1": {
      "latitude": "47.725808",
      "longitude": "-122.288042"
    },
    "features": [
      "Drinking fountains",
      "Grills",
      "Play Area",
      "Trails"
    ],
    "feature_count": 4,
    "has_features": true
  },
  {
    "pmaid": "4448",
    "locid": "1245",
    "name": "Cesar Chavez Park",
    "address": "700 S Cloverdale St",
    "zip_code": "98108",
    "x_coord": "-122.32562",
    "y_coord": "47.52678",
    "location_1": {
      "latitude": "47.52678",
      "longitude": "-122.32562"
    },
    "features": [],
    "feature_count": 0,
    "has_features": false
  },
  {
    "pmaid": "80",
    "locid": "2497",
    "name": "Charles Richey Sr Viewpoint",
    "address": "3521 Beach Dr SW",
    "zip_code": "98116",
    "x_coord": "-122.413877",
    "y_coord": "47.57242",
    "location_1": {
      "latitude": "47.57242",
      "longitude": "-122.413877"
    },
    "features": [
      "Hand Carry Boat Launches"
    ],
    "feature_count": 1,
    "has_features": true
  },
  {
    "pmaid": "4214",
    "locid": "2532",
    "name": "Cheasty Boulevard",
    "address": "Cheasty Blvd S & S Della St",
    "zip_code": "98144",
    "x_coord": "-122.299204",
    "y_coord": "47.572682",
    "location_1": {
      "latitude": "47.572682",
      "longitude": "-122.299204"
    },
    "features": [],
    "feature_count": 0,
    "has_features": false
  },
  {
    "pmaid": "258",
    "locid": "2021",
    "name": "Cheasty GS: Cheasty Blvd",
    "address": "Cheasty Blvd S & S Della St",
    "zip_code": "98144",
    "x_coord": "-122.299204",
    "y_coord": "47.572682",
    "location_1": {
      "latitude": "47.572682",
      "longitude": "-122.299204"
    },
    "features": [
      "Trails"
    ],
    "feature_count": 1,
    "has_features": true
  },
  {
    "pmaid": "421",
    "locid": "1249",
    "name": "Chinook Beach Park",
    "address": "700 S Cloverdale St",
    "zip_code": "98118",
    "x_coord": "-122.258376",
    "y_coord": "47.520135",
    "location_1": {
      "latitude": "47.520135",
      "longitude": "-122.258376"
    },
    "features": [
      "Views"
    ],
    "feature_count": 1,
    "has_features": true
  },
  {
    "pmaid": "595",
    "locid": "1250",
    "name": "Christie Park",
    "address": "817 NE 43rd St",
    "zip_code": "98105",
    "x_coord": "-122.319072",
    "y_coord": "47.659308",
    "location_1": {
      "latitude": "47.659308",
      "longitude": "-122.319072"
    },
    "features": [
      "Basketball Courts",
      "Drinking fountains"
    ],
    "feature_count": 2,
    "has_features": true
  },
  {
    "pmaid": "306",
    "locid": "1252",
    "name": "City Hall Park",
    "address": "450 3rd Ave",
    "zip_code": "98119",
    "x_coord": "-122.329875",
    "y_coord": "47.602022",
    "location_1": {
      "latitude": "47.602022",
      "longitude": "-122.329875"
    },
    "features": [
      "Art in the Park"
    ],
    "feature_count": 1,
    "has_features": true
  },
  {
    "pmaid": "404",
    "locid": "2026",
    "name": "Cleveland Playfield",
    "address": "5512 13th Ave S",
    "zip_code": "98108",
    "x_coord": "-122.315542",
    "y_coord": "47.552012",
    "location_1": {
      "latitude": "47.552012",
      "longitude": "-122.315542"
    },
    "features": [
      "Drinking fountains",
      "Soccer Fields",
      "Track Fields",
      "Trails"
    ],
    "feature_count": 4,
    "has_features": true
  },
  {
    "pmaid": "3985",
    "locid": "1261",
    "name": "Coe Play Park",
    "address": "2420 7th Ave W",
    "zip_code": "98119",
    "x_coord": "-122.365952",
    "y_coord": "47.640108",
    "location_1": {
      "latitude": "47.640108",
      "longitude": "-122.365952"
    },
    "features": [
      "Drinking fountains",
      "Play Area"
    ],
    "feature_count": 2,
    "has_features": true
  },
  {
    "pmaid": "3922",
    "locid": "2503",
    "name": "College Street Park",
    "address": "30th Ave S & S College St",
    "zip_code": "98144",
    "x_coord": "-122.294616",
    "y_coord": "47.582697",
    "location_1": {
      "latitude": "47.582697",
      "longitude": "-122.294616"
    },
    "features": [
      "Drinking fountains"
    ],
    "feature_count": 1,
    "has_features": true
  },
  {
    "pmaid": "260",
    "locid": "2504",
    "name": "College Street Ravine",
    "address": "5050 SW College St",
    "zip_code": "98116",
    "x_coord": "-122.395546",
    "y_coord": "47.583406",
    "location_1": {
      "latitude": "47.583406",
      "longitude": "-122.395546"
    },
    "features": [],
    "feature_count": 0,
    "has_features": false
  },
  {
    "pmaid": "405",
    "locid": "1263",
    "name": "Colman Park",
    "address": "1800 Lake Washington Blvd S",
    "zip_code": "98144",
    "x_coord": "-122.288612",
    "y_coord": "47.58547",
    "location_1": {
      "latitude": "47.58547",
      "longitude": "-122.288612"
    },
    "features": [
      "Trails",
      "Views"
    ],
    "feature_count": 2,
    "has_features": true
  },
  {
    "pmaid": "406",
    "locid": "1121",
    "name": "Colman Playground",
    "address": "1740 23rd Ave S",
    "zip_code": "98122",
    "x_coord": "-122.301957",
    "y_coord": "47.587625",
    "location_1": {
      "latitude": "47.587625",
      "longitude": "-122.301957"
    },
    "features": [
      "Art in the Park",
      "Baseball/Softball Fields",
      "Basketball Courts",
      "Play Area",
      "Restrooms",
      "Soccer Fields"
    ],
    "feature_count": 6,
    "has_features": true
  },
  {
    "pmaid": "4034",
    "locid": "1271",
    "name": "Columbia Park",
    "address": "4721 Rainier Ave S",
    "zip_code": "98118",
    "x_coord": "-122.287394",
    "y_coord": "47.559792",
    "location_1": {
      "latitude": "47.559792",
      "longitude": "-122.287394"
    },
    "features": [
      "Art in the Park",
      "Views"
    ],
    "feature_count": 2,
    "has_features": true
  },
  {
    "pmaid": "308",
    "locid": "1272",
    "name": "Commodore Park",
    "address": "3330 W Commodore Way",
    "zip_code": "98107",
    "x_coord": "-122.40014",
    "y_coord": "47.66538",
    "location_1": {
      "latitude": "47.66538",
      "longitude": "-122.40014"
    },
    "features": [
      "Drinking fountains",
      "Views"
    ],
    "feature_count": 2,
    "has_features": true
  },
  {
    "pmaid": "4017",
    "locid": "1275",
    "name": "Corliss Place",
    "address": "2166 N 50th St",
    "zip_code": "98103",
    "x_coord": "-122.330874",
    "y_coord": "47.665198",
    "location_1": {
      "latitude": "47.665198",
      "longitude": "-122.330874"
    },
    "features": [],
    "feature_count": 0,
    "has_features": false
  },
  {
    "pmaid": "295",
    "locid": "1276",
    "name": "Cormorant Cove",
    "address": "3701 Beach Dr SW",
    "zip_code": "98116",
    "x_coord": "-122.412089",
    "y_coord": "47.570984",
    "location_1": {
      "latitude": "47.570984",
      "longitude": "-122.412089"
    },
    "features": [
      "Hand Carry Boat Launches",
      "Views"
    ],
    "feature_count": 2,
    "has_features": true
  },
  {
    "pmaid": "4462",
    "locid": "1277",
    "name": "Cottage Grove Park",
    "address": "5206 26th Ave SW",
    "zip_code": "98106",
    "x_coord": "-122.365311",
    "y_coord": "47.554364",
    "location_1": {
      "latitude": "47.554364",
      "longitude": "-122.365311"
    },
    "features": [
      "Grills"
    ],
    "feature_count": 1,
    "has_features": true
  },
  {
    "pmaid": "4438",
    "locid": "1084",
    "name": "Counterbalance Park: An Urban Oasis",
    "address": "700 Queen Anne Ave N",
    "zip_code": "98109",
    "x_coord": "-122.356323",
    "y_coord": "47.625683",
    "location_1": {
      "latitude": "47.625683",
      "longitude": "-122.356323"
    },
    "features": [
      "Drinking fountains"
    ],
    "feature_count": 1,
    "has_features": true
  },
  {
    "pmaid": "483",
    "locid": "1279",
    "name": "Cowen Park",
    "address": "5849 15th Ave NE",
    "zip_code": "98105",
    "x_coord": "-122.313072",
    "y_coord": "47.672596",
    "location_1": {
      "latitude": "47.672596",
      "longitude": "-122.313072"
    },
    "features": [
      "Baseball/Softball Fields",
      "Drinking fountains",
      "Play Area",
      "Restrooms",
      "Trails"
    ],
    "feature_count": 5,
    "has_features": true
  },
  {
    "pmaid": "4018",
    "locid": "1280",
    "name": "Crescent Place",
    "address": "7515 Orin Ct N",
    "zip_code": "98103",
    "x_coord": "-122.333029",
    "y_coord": "47.684317",
    "location_1": {
      "latitude": "47.684317",
      "longitude": "-122.333029"
    },
    "features": [],
    "feature_count": 0,
    "has_features": false
  },
  {
    "pmaid": "4070",
    "locid": "1281",
    "name": "Crown Hill Glen",
    "address": "8735 19th Ave NW",
    "zip_code": "98117",
    "x_coord": "-122.381394",
    "y_coord": "47.693703",
    "location_1": {
      "latitude": "47.693703",
      "longitude": "-122.381394"
    },
    "features": [],
    "feature_count": 0,
    "has_features": false
  },
  {
    "pmaid": "4469",
    "locid": "1282",
    "name": "Crown Hill Park",
    "address": "9089 Holman Rd NW",
    "zip_code": "98117",
    "x_coord": "-122.373976",
    "y_coord": "47.696071",
    "location_1": {
      "latitude": "47.696071",
      "longitude": "-122.373976"
    },
    "features": [
      "Drinking fountains",
      "Play Area",
      "Skate Park"
    ],
    "feature_count": 3,
    "has_features": true
  },
  {
    "pmaid": "4400",
    "locid": "1285",
    "name": "Daejeon Park",
    "address": "1144 Sturgus Ave S",
    "zip_code": "98144",
    "x_coord": "-122.312163",
    "y_coord": "47.59192",
    "location_1": {
      "latitude": "47.59192",
      "longitude": "-122.312163"
    },
    "features": [
      "Views"
    ],
    "feature_count": 1,
    "has_features": true
  },
  {
    "pmaid": "499",
    "locid": "1819",
    "name": "Dahl Playfield",
    "address": "7700 25th Ave NE",
    "zip_code": "98115",
    "x_coord": "-122.299309",
    "y_coord": "47.685267",
    "location_1": {
      "latitude": "47.685267",
      "longitude": "-122.299309"
    },
    "features": [
      "Baseball/Softball Fields",
      "Basketball Courts",
      "Play Area",
      "Restrooms",
      "Skate Park",
      "Soccer Fields"
    ],
    "feature_count": 6,
    "has_features": true
  },
  {
    "pmaid": "575",
    "locid": "1287",
    "name": "Dakota Place Park",
    "address": "4304 SW Dakota St",
    "zip_code": "98116",
    "x_coord": "-122.387164",
    "y_coord": "47.566844",
    "location_1": {
      "latitude": "47.566844",
      "longitude": "-122.387164"
    },
    "features": [],
    "feature_count": 0,
    "has_features": false
  },
  {
    "pmaid": "331",
    "locid": "1289",
    "name": "David Rodgers Park",
    "address": "2800 1st Ave W",
    "zip_code": "98119",
    "x_coord": "-122.359484",
    "y_coord": "47.644135",
    "location_1": {
      "latitude": "47.644135",
      "longitude": "-122.359484"
    },
    "features": [
      "Drinking fountains",
      "Play Area",
      "Restrooms",
      "Tennis Courts"
    ],
    "feature_count": 4,
    "has_features": true
  },
  {
    "pmaid": "4082",
    "locid": "2505",
    "name": "Day Street Boat Ramp",
    "address": "1402 Lakeside Ave S",
    "zip_code": "98144",
    "x_coord": "-122.285154",
    "y_coord": "47.59026",
    "location_1": {
      "latitude": "47.59026",
      "longitude": "-122.285154"
    },
    "features": [
      "Motorized Boat Launches",
      "Views"
    ],
    "feature_count": 2,
    "has_features": true
  },
  {
    "pmaid": "408",
    "locid": "1291",
    "name": "Dearborn Park",
    "address": "2919 S Brandon St",
    "zip_code": "98126",
    "x_coord": "-122.296225",
    "y_coord": "47.553389",
    "location_1": {
      "latitude": "47.553389",
      "longitude": "-122.296225"
    },
    "features": [
      "Drinking fountains",
      "Grills",
      "Play Area",
      "Trails"
    ],
    "feature_count": 4,
    "has_features": true
  },
  {
    "pmaid": "450",
    "locid": "1124",
    "name": "Delridge Playfield",
    "address": "4458 Delridge Way SW",
    "zip_code": "98106",
    "x_coord": "-122.364371",
    "y_coord": "47.562842",
    "location_1": {
      "latitude": "47.562842",
      "longitude": "-122.364371"
    },
    "features": [
      "Adult Fitness Equipment",
      "Art in the Park",
      "Baseball/Softball Fields",
      "Basketball Courts",
      "Drinking fountains",
      "Grills",
      "Play Area",
      "Restrooms",
      "Skate Park",
      "Soccer Fields",
      "Tennis Courts"
    ],
    "feature_count": 11,
    "has_features": true
  },
  {
    "pmaid": "3980",
    "locid": "1298",
    "name": "Denny Blaine Lake Park",
    "address": "100 Maiden Ln E",
    "zip_code": "98112",
    "x_coord": "-122.284838",
    "y_coord": "47.61833",
    "location_1": {
      "latitude": "47.61833",
      "longitude": "-122.284838"
    },
    "features": [],
    "feature_count": 0,
    "has_features": false
  },
  {
    "pmaid": "3982",
    "locid": "1300",
    "name": "Denny Blaine Park",
    "address": "200 Lake Washington Blvd E",
    "zip_code": "98112",
    "x_coord": "-122.280548",
    "y_coord": "47.62011",
    "location_1": {
      "latitude": "47.62011",
      "longitude": "-122.280548"
    },
    "features": [
      "Views"
    ],
    "feature_count": 1,
    "has_features": true
  },
  {
    "pmaid": "309",
    "locid": "1297",
    "name": "Denny Park",
    "address": "100 Dexter Ave N",
    "zip_code": "98109",
    "x_coord": "-122.341049",
    "y_coord": "47.61913",
    "location_1": {
      "latitude": "47.61913",
      "longitude": "-122.341049"
    },
    "features": [
      "Art in the Park",
      "Dog Off Leash Areas",
      "Drinking fountains",
      "Play Area"
    ],
    "feature_count": 4,
    "has_features": true
  },
  {
    "pmaid": "310",
    "locid": "1301",
    "name": "Discovery Park",
    "address": "3801 Discovery Park Blvd",
    "zip_code": "98199",
    "x_coord": "-122.415282",
    "y_coord": "47.66083",
    "location_1": {
      "latitude": "47.66083",
      "longitude": "-122.415282"
    },
    "features": [
      "Basketball Courts",
      "Drinking fountains",
      "Play Area",
      "Restrooms",
      "Tennis Courts",
      "Trails",
      "Views"
    ],
    "feature_count": 7,
    "has_features": true
  },
  {
    "pmaid": "3917",
    "locid": "1085",
    "name": "Don Armeni Park",
    "address": "1222 Harbor Ave SW",
    "zip_code": "98116",
    "x_coord": "-122.382295",
    "y_coord": "47.59274",
    "location_1": {
      "latitude": "47.59274",
      "longitude": "-122.382295"
    },
    "features": [
      "Drinking fountains",
      "Motorized Boat Launches",
      "Picnic Sites",
      "Restrooms",
      "Views"
    ],
    "feature_count": 5,
    "has_features": true
  },
  {
    "pmaid": "395",
    "locid": "2496",
    "name": "Dr. Blanche Lavizzo Park",
    "address": "2100 S Jackson St",
    "zip_code": "98144",
    "x_coord": "-122.304179",
    "y_coord": "47.600278",
    "location_1": {
      "latitude": "47.600278",
      "longitude": "-122.304179"
    },
    "features": [
      "Drinking fountains",
      "Grills",
      "Play Area",
      "Restrooms"
    ],
    "feature_count": 4,
    "has_features": true
  },
  {
    "pmaid": "433",
    "locid": "2490",
    "name": "Dr. Jose Rizal Park",
    "address": "1007 12th Ave S",
    "zip_code": "98144",
    "x_coord": "-122.318094",
    "y_coord": "47.593859",
    "location_1": {
      "latitude": "47.593859",
      "longitude": "-122.318094"
    },
    "features": [
      "Art in the Park",
      "Dog Off Leash Areas",
      "Drinking fountains",
      "Grills",
      "Picnic Sites",
      "Play Area",
      "Restrooms",
      "Trails",
      "Views"
    ],
    "feature_count": 9,
    "has_features": true
  },
  {
    "pmaid": "705",
    "locid": "1304",
    "name": "Duwamish Waterway Park",
    "address": "7900 10th Ave S",
    "zip_code": "98106",
    "x_coord": "-122.319694",
    "y_coord": "47.531156",
    "location_1": {
      "latitude": "47.531156",
      "longitude": "-122.319694"
    },
    "features": [
      "Grills",
      "Hand Carry Boat Launches"
    ],
    "feature_count": 2,
    "has_features": true
  },
  {
    "pmaid": "458",
    "locid": "2534",
    "name": "E.C. Hughes Playground",
    "address": "2805 SW Holden St",
    "zip_code": "98126",
    "x_coord": "-122.369545",
    "y_coord": "47.532805",
    "location_1": {
      "latitude": "47.532805",
      "longitude": "-122.369545"
    },
    "features": [
      "Baseball/Softball Fields",
      "Basketball Courts",
      "Grills",
      "Play Area",
      "Restrooms",
      "Soccer Fields"
    ],
    "feature_count": 6,
    "has_features": true
  },
  {
    "pmaid": "374",
    "locid": "1305",
    "name": "East Montlake Park",
    "address": "2802 E Park Drive East",
    "zip_code": "98112",
    "x_coord": "-122.301441",
    "y_coord": "47.646662",
    "location_1": {
      "latitude": "47.646662",
      "longitude": "-122.301441"
    },
    "features": [],
    "feature_count": 0,
    "has_features": false
  },
  {
    "pmaid": "4241",
    "locid": "2507",
    "name": "East Portal Viewpoint",
    "address": "1400 Lake Washington Blvd S",
    "zip_code": "98144",
    "x_coord": "-122.287893",
    "y_coord": "47.590222",
    "location_1": {
      "latitude": "47.590222",
      "longitude": "-122.287893"
    },
    "features": [
      "Views"
    ],
    "feature_count": 1,
    "has_features": true
  },
  {
    "pmaid": "329",
    "locid": "2535",
    "name": "East Queen Anne Playground",
    "address": "1912 Warren Ave N",
    "zip_code": "98109",
    "x_coord": "-122.353786",
    "y_coord": "47.636139",
    "location_1": {
      "latitude": "47.636139",
      "longitude": "-122.353786"
    },
    "features": [
      "Baseball/Softball Fields",
      "Drinking fountains",
      "Play Area",
      "Restrooms",
      "Soccer Fields"
    ],
    "feature_count": 5,
    "has_features": true
  },
  {
    "pmaid": "3977",
    "locid": "0",
    "name": "Eastlake Triangle",
    "address": "10th Ave E & E Prospect St",
    "zip_code": "98109",
    "x_coord": "-122.328918",
    "y_coord": "47.62841",
    "location_1": {
      "latitude": "47.62841",
      "longitude": "-122.328918"
    },
    "features": [],
    "feature_count": 0,
    "has_features": false
  },
  {
    "pmaid": "4012",
    "locid": "1308",
    "name": "Eastmont Place",
    "address": "2201 Westmont Way W",
    "zip_code": "98199",
    "x_coord": "-122.405566",
    "y_coord": "47.637689",
    "location_1": {
      "latitude": "47.637689",
      "longitude": "-122.405566"
    },
    "features": [
      "Views"
    ],
    "feature_count": 1,
    "has_features": true
  },
  {
    "pmaid": "1000003",
    "locid": "0",
    "name": "Eddie Vine Boat Ramp",
    "address": "8001 Seaview Ave NW",
    "zip_code": "98117",
    "x_coord": "-122.403454",
    "y_coord": "47.686852",
    "location_1": {
      "latitude": "47.686852",
      "longitude": "-122.403454"
    },
    "features": [],
    "feature_count": 0,
    "has_features": false
  },
  {
    "pmaid": "318",
    "locid": "1311",
    "name": "Ella Bailey Park",
    "address": "2601 W Smith St",
    "zip_code": "98199",
    "x_coord": "-122.39106",
    "y_coord": "47.640584",
    "location_1": {
      "latitude": "47.640584",
      "longitude": "-122.39106"
    },
    "features": [
      "Drinking fountains",
      "Grills",
      "Play Area",
      "Views"
    ],
    "feature_count": 4,
    "has_features": true
  },
  {
    "pmaid": "3920",
    "locid": "1086",
    "name": "Emma Schmitz Memorial Overlook",
    "address": "4503 Beach Dr SW",
    "zip_code": "98116",
    "x_coord": "-122.40712",
    "y_coord": "47.562898",
    "location_1": {
      "latitude": "47.562898",
      "longitude": "-122.40712"
    },
    "features": [
      "Drinking fountains",
      "Views"
    ],
    "feature_count": 2,
    "has_features": true
  },
  {
    "pmaid": "1653",
    "locid": "1314",
    "name": "Endolyne Park",
    "address": "9827 49th Ave SW",
    "zip_code": "98116",
    "x_coord": "-122.39438",
    "y_coord": "47.514542",
    "location_1": {
      "latitude": "47.514542",
      "longitude": "-122.39438"
    },
    "features": [],
    "feature_count": 0,
    "has_features": false
  },
  {
    "pmaid": "4454",
    "locid": "1316",
    "name": "Ercolini Park",
    "address": "4542 48th Ave SW",
    "zip_code": "98116",
    "x_coord": "-122.394275",
    "y_coord": "47.515021",
    "location_1": {
      "latitude": "47.515021",
      "longitude": "-122.394275"
    },
    "features": [
      "Play Area"
    ],
    "feature_count": 1,
    "has_features": true
  },
  {
    "pmaid": "452",
    "locid": "1127",
    "name": "Fairmount Playfield",
    "address": "5400 Fauntleroy Way SW",
    "zip_code": "98136",
    "x_coord": "-122.380549",
    "y_coord": "47.554041",
    "location_1": {
      "latitude": "47.554041",
      "longitude": "-122.380549"
    },
    "features": [
      "Baseball/Softball Fields",
      "Drinking fountains",
      "Play Area",
      "Restrooms",
      "Soccer Fields"
    ],
    "feature_count": 5,
    "has_features": true
  },
  {
    "pmaid": "2975",
    "locid": "1323",
    "name": "Fairview Park",
    "address": "2900 Fairview Ave E",
    "zip_code": "98102",
    "x_coord": "-122.325368",
    "y_coord": "47.647413",
    "location_1": {
      "latitude": "47.647413",
      "longitude": "-122.325368"
    },
    "features": [
      "Hand Carry Boat Launches",
      "Views"
    ],
    "feature_count": 2,
    "has_features": true
  },
  {
    "pmaid": "4155",
    "locid": "1461",
    "name": "Fairview Walkway",
    "address": "1251 Fairview Ave. N",
    "zip_code": "98109",
    "x_coord": "-122.328967",
    "y_coord": "47.630501",
    "location_1": {
      "latitude": "47.630501",
      "longitude": "-122.328967"
    },
    "features": [
      "Hand Carry Boat Launches"
    ],
    "feature_count": 1,
    "has_features": true
  },
  {
    "pmaid": "3149",
    "locid": "1324",
    "name": "Fauntleroy Creek Ravine",
    "address": "9102 Fauntleroy Way SW",
    "zip_code": "98136",
    "x_coord": "-122.392498",
    "y_coord": "47.522599",
    "location_1": {
      "latitude": "47.522599",
      "longitude": "-122.392498"
    },
    "features": [
      "Art in the Park"
    ],
    "feature_count": 1,
    "has_features": true
  },
  {
    "pmaid": "453",
    "locid": "1325",
    "name": "Fauntleroy Park",
    "address": "3951 SW Barton St",
    "zip_code": "98136",
    "x_coord": "-122.383222",
    "y_coord": "47.5192",
    "location_1": {
      "latitude": "47.5192",
      "longitude": "-122.383222"
    },
    "features": [
      "Trails"
    ],
    "feature_count": 1,
    "has_features": true
  },
  {
    "pmaid": "3921",
    "locid": "1326",
    "name": "Fauntleroy Place",
    "address": "4501 Fauntleroy Way SW",
    "zip_code": "98126",
    "x_coord": "-122.379834",
    "y_coord": "47.562715",
    "location_1": {
      "latitude": "47.562715",
      "longitude": "-122.379834"
    },
    "features": [],
    "feature_count": 0,
    "has_features": false
  },
  {
    "pmaid": "413",
    "locid": "2498",
    "name": "Ferdinand Street Boat Ramp",
    "address": "5018 Lake Washington Blvd S",
    "zip_code": "98118",
    "x_coord": "-122.264912",
    "y_coord": "47.561358",
    "location_1": {
      "latitude": "47.561358",
      "longitude": "-122.264912"
    },
    "features": [
      "Grills",
      "Hand Carry Boat Launches",
      "Picnic Sites"
    ],
    "feature_count": 3,
    "has_features": true
  },
  {
    "pmaid": "351",
    "locid": "1331",
    "name": "Firehouse Mini Park",
    "address": "712 18th Ave",
    "zip_code": "98122",
    "x_coord": "-122.308558",
    "y_coord": "47.608448",
    "location_1": {
      "latitude": "47.608448",
      "longitude": "-122.308558"
    },
    "features": [
      "Drinking fountains",
      "Play Area"
    ],
    "feature_count": 2,
    "has_features": true
  },
  {
    "pmaid": "3910",
    "locid": "1332",
    "name": "First Hill Park",
    "address": "1201 University St",
    "zip_code": "98101",
    "x_coord": "-122.325512",
    "y_coord": "47.611906",
    "location_1": {
      "latitude": "47.611906",
      "longitude": "-122.325512"
    },
    "features": [
      "Drinking fountains"
    ],
    "feature_count": 1,
    "has_features": true
  },
  {
    "pmaid": "3948",
    "locid": "1333",
    "name": "Fletcher Place",
    "address": "9285 Waters Ave S",
    "zip_code": "98118",
    "x_coord": "-122.261484",
    "y_coord": "47.519093",
    "location_1": {
      "latitude": "47.519093",
      "longitude": "-122.261484"
    },
    "features": [],
    "feature_count": 0,
    "has_features": false
  },
  {
    "pmaid": "363",
    "locid": "1334",
    "name": "Flo Ware Park",
    "address": "2800 S Jackson St",
    "zip_code": "98144",
    "x_coord": "-122.295868",
    "y_coord": "47.599557",
    "location_1": {
      "latitude": "47.599557",
      "longitude": "-122.295868"
    },
    "features": [
      "Basketball Courts",
      "Play Area"
    ],
    "feature_count": 2,
    "has_features": true
  },
  {
    "pmaid": "312",
    "locid": "2390",
    "name": "Freeway Park - Jim Ellis Freeway Park",
    "address": "700 Seneca St",
    "zip_code": "98101",
    "x_coord": "-122.330904",
    "y_coord": "47.609472",
    "location_1": {
      "latitude": "47.609472",
      "longitude": "-122.330904"
    },
    "features": [
      "Art in the Park"
    ],
    "feature_count": 1,
    "has_features": true
  },
  {
    "pmaid": "4011",
    "locid": "1341",
    "name": "Fremont Canal Park",
    "address": "199 N Canal St",
    "zip_code": "98103",
    "x_coord": "-122.357864",
    "y_coord": "47.651802",
    "location_1": {
      "latitude": "47.651802",
      "longitude": "-122.357864"
    },
    "features": [
      "Art in the Park",
      "Views"
    ],
    "feature_count": 2,
    "has_features": true
  },
  {
    "pmaid": "4424",
    "locid": "1343",
    "name": "Fremont Peak Park",
    "address": "4357 Palatine Ave N",
    "zip_code": "98103",
    "x_coord": "-122.356671",
    "y_coord": "47.661108",
    "location_1": {
      "latitude": "47.661108",
      "longitude": "-122.356671"
    },
    "features": [
      "Views"
    ],
    "feature_count": 1,
    "has_features": true
  },
  {
    "pmaid": "392",
    "locid": "1345",
    "name": "Frink Park",
    "address": "398 Lake Washington Blvd S",
    "zip_code": "98144",
    "x_coord": "-122.290256",
    "y_coord": "47.599506",
    "location_1": {
      "latitude": "47.599506",
      "longitude": "-122.290256"
    },
    "features": [
      "Trails"
    ],
    "feature_count": 1,
    "has_features": true
  },
  {
    "pmaid": "287",
    "locid": "1128",
    "name": "Froula Playground",
    "address": "7200 12th Ave NE",
    "zip_code": "98115",
    "x_coord": "-122.313978",
    "y_coord": "47.680538",
    "location_1": {
      "latitude": "47.680538",
      "longitude": "-122.313978"
    },
    "features": [
      "Art in the Park",
      "Play Area",
      "Tennis Courts"
    ],
    "feature_count": 3,
    "has_features": true
  },
  {
    "pmaid": "353",
    "locid": "1130",
    "name": "Garfield Playfield",
    "address": "537 25th Ave",
    "zip_code": "98122",
    "x_coord": "-122.301412",
    "y_coord": "47.607098",
    "location_1": {
      "latitude": "47.607098",
      "longitude": "-122.301412"
    },
    "features": [
      "Art in the Park",
      "Baseball/Softball Fields",
      "Drinking fountains",
      "Football Fields",
      "Grills",
      "Play Area",
      "Restrooms",
      "Tennis Courts"
    ],
    "feature_count": 8,
    "has_features": true
  },
  {
    "pmaid": "293",
    "locid": "1349",
    "name": "Gas Works Park",
    "address": "2101 N Northlake Way",
    "zip_code": "98103",
    "x_coord": "-122.334906",
    "y_coord": "47.645639",
    "location_1": {
      "latitude": "47.645639",
      "longitude": "-122.334906"
    },
    "features": [
      "Art in the Park",
      "Drinking fountains",
      "Grills",
      "Picnic Sites",
      "Play Area",
      "Restrooms",
      "Views"
    ],
    "feature_count": 7,
    "has_features": true
  },
  {
    "pmaid": "409",
    "locid": "1786",
    "name": "Genesee Park and Playfield",
    "address": "4316 S Genesee St",
    "zip_code": "98118",
    "x_coord": "-122.278744",
    "y_coord": "47.564856",
    "location_1": {
      "latitude": "47.564856",
      "longitude": "-122.278744"
    },
    "features": [
      "Dog Off Leash Areas",
      "Drinking fountains",
      "Grills",
      "Picnic Sites",
      "Play Area",
      "Restrooms",
      "Soccer Fields",
      "Trails"
    ],
    "feature_count": 8,
    "has_features": true
  },
  {
    "pmaid": "410",
    "locid": "2094",
    "name": "Georgetown Playfield",
    "address": "750 S Homer St",
    "zip_code": "98108",
    "x_coord": "-122.321396",
    "y_coord": "47.55162",
    "location_1": {
      "latitude": "47.55162",
      "longitude": "-122.321396"
    },
    "features": [
      "Baseball/Softball Fields",
      "Basketball Courts",
      "Drinking fountains",
      "Play Area",
      "Restrooms",
      "Soccer Fields",
      "Spray Parks",
      "Tennis Courts"
    ],
    "feature_count": 8,
    "has_features": true
  },
  {
    "pmaid": "3759",
    "locid": "1359",
    "name": "Gerber Park",
    "address": "575 M L King Jr Way S",
    "zip_code": "98122",
    "x_coord": "-122.296568",
    "y_coord": "47.607709",
    "location_1": {
      "latitude": "47.607709",
      "longitude": "-122.296568"
    },
    "features": [],
    "feature_count": 0,
    "has_features": false
  },
  {
    "pmaid": "242",
    "locid": "1134",
    "name": "Gilman Playground",
    "address": "923 NW 54th St",
    "zip_code": "98107",
    "x_coord": "-122.369684",
    "y_coord": "47.667292",
    "location_1": {
      "latitude": "47.667292",
      "longitude": "-122.369684"
    },
    "features": [
      "Baseball/Softball Fields",
      "Basketball Courts",
      "Drinking fountains",
      "Play Area",
      "Restrooms",
      "Soccer Fields",
      "Tennis Courts"
    ],
    "feature_count": 7,
    "has_features": true
  },
  {
    "pmaid": "243",
    "locid": "1361",
    "name": "Golden Gardens Park",
    "address": "8498 Seaview Pl NW",
    "zip_code": "98117",
    "x_coord": "-122.403454",
    "y_coord": "47.686852",
    "location_1": {
      "latitude": "47.686852",
      "longitude": "-122.403454"
    },
    "features": [
      "Art in the Park",
      "Dog Off Leash Areas",
      "Drinking fountains",
      "Fire Pits",
      "Fishing piers",
      "Grills",
      "Hand Carry Boat Launches",
      "Motorized Boat Launches",
      "Picnic Sites",
      "Play Area",
      "Restrooms",
      "Trails",
      "Views"
    ],
    "feature_count": 13,
    "has_features": true
  },
  {
    "pmaid": "354",
    "locid": "1346",
    "name": "Grand Army of the Republic Cemetery",
    "address": "1200 E Howe St",
    "zip_code": "98102",
    "x_coord": "-122.316261",
    "y_coord": "47.636461",
    "location_1": {
      "latitude": "47.636461",
      "longitude": "-122.316261"
    },
    "features": [],
    "feature_count": 0,
    "has_features": false
  },
  {
    "pmaid": "307",
    "locid": "1366",
    "name": "Green Lake Park",
    "address": "7201 E Greenlake Dr N",
    "zip_code": "98115",
    "x_coord": "-122.330394",
    "y_coord": "47.678938",
    "location_1": {
      "latitude": "47.678938",
      "longitude": "-122.330394"
    },
    "features": [
      "Art in the Park",
      "Baseball/Softball Fields",
      "Basketball Courts",
      "Drinking fountains",
      "Fishing piers",
      "Grills",
      "Hand Carry Boat Launches",
      "Play Area",
      "Restrooms",
      "Soccer Fields",
      "Swimming Beaches",
      "Tennis Courts"
    ],
    "feature_count": 12,
    "has_features": true
  },
  {
    "pmaid": "4408",
    "locid": "1369",
    "name": "Greenwood Park",
    "address": "602 N 87th St",
    "zip_code": "98117",
    "x_coord": "-122.350647",
    "y_coord": "47.693048",
    "location_1": {
      "latitude": "47.693048",
      "longitude": "-122.350647"
    },
    "features": [
      "Drinking fountains",
      "Play Area",
      "Restrooms"
    ],
    "feature_count": 3,
    "has_features": true
  },
  {
    "pmaid": "245",
    "locid": "1371",
    "name": "Greenwood Triangle",
    "address": "304 NW 55th St",
    "zip_code": "98107",
    "x_coord": "-122.361032",
    "y_coord": "47.668902",
    "location_1": {
      "latitude": "47.668902",
      "longitude": "-122.361032"
    },
    "features": [],
    "feature_count": 0,
    "has_features": false
  },
  {
    "pmaid": "4157",
    "locid": "1372",
    "name": "Greg Davis Park",
    "address": "2600 SW Brandon St",
    "zip_code": "98106",
    "x_coord": "-122.366001",
    "y_coord": "47.55437",
    "location_1": {
      "latitude": "47.55437",
      "longitude": "-122.366001"
    },
    "features": [],
    "feature_count": 0,
    "has_features": false
  },
  {
    "pmaid": "454",
    "locid": "1375",
    "name": "Hamilton Viewpoint Park",
    "address": "1120 California Ave SW",
    "zip_code": "98116",
    "x_coord": "-122.38907",
    "y_coord": "47.590748",
    "location_1": {
      "latitude": "47.590748",
      "longitude": "-122.38907"
    },
    "features": [
      "Drinking fountains"
    ],
    "feature_count": 1,
    "has_features": true
  },
  {
    "pmaid": "355",
    "locid": "0",
    "name": "Harborview Park",
    "address": "779 Alder St",
    "zip_code": "98104",
    "x_coord": "-122.323693",
    "y_coord": "47.603014",
    "location_1": {
      "latitude": "47.603014",
      "longitude": "-122.323693"
    },
    "features": [],
    "feature_count": 0,
    "has_features": false
  },
  {
    "pmaid": "356",
    "locid": "1377",
    "name": "Harrison Ridge Greenbelt",
    "address": "138 32nd Ave E",
    "zip_code": "98112",
    "x_coord": "-122.290339",
    "y_coord": "47.619711",
    "location_1": {
      "latitude": "47.619711",
      "longitude": "-122.290339"
    },
    "features": [],
    "feature_count": 0,
    "has_features": false
  },
  {
    "pmaid": "3695",
    "locid": "1378",
    "name": "Harvard-Miller/Roanoke Annex",
    "address": "2351 Broadway E",
    "zip_code": "98102",
    "x_coord": "-122.321643",
    "y_coord": "47.641091",
    "location_1": {
      "latitude": "47.641091",
      "longitude": "-122.321643"
    },
    "features": [],
    "feature_count": 0,
    "has_features": false
  },
  {
    "pmaid": "4412",
    "locid": "1381",
    "name": "Herring's House Park (T'ul'altx)",
    "address": "4570 West Marginal Way SW",
    "zip_code": "98106",
    "x_coord": "-122.349545",
    "y_coord": "47.561514",
    "location_1": {
      "latitude": "47.561514",
      "longitude": "-122.349545"
    },
    "features": [
      "Views"
    ],
    "feature_count": 1,
    "has_features": true
  },
  {
    "pmaid": "456",
    "locid": "1788",
    "name": "Hiawatha Playfield",
    "address": "2700 California Ave SW",
    "zip_code": "98116",
    "x_coord": "-122.384965",
    "y_coord": "47.578272",
    "location_1": {
      "latitude": "47.578272",
      "longitude": "-122.384965"
    },
    "features": [
      "Adult Fitness Equipment",
      "Baseball/Softball Fields",
      "Basketball Courts",
      "Drinking fountains",
      "Football Fields",
      "Play Area",
      "Restrooms",
      "Soccer Fields",
      "Tennis Courts"
    ],
    "feature_count": 9,
    "has_features": true
  },
  {
    "pmaid": "3983",
    "locid": "1383",
    "name": "Highland Drive Parkway",
    "address": "165 Highland Dr",
    "zip_code": "98109",
    "x_coord": "-122.353337",
    "y_coord": "47.629736",
    "location_1": {
      "latitude": "47.629736",
      "longitude": "-122.353337"
    },
    "features": [],
    "feature_count": 0,
    "has_features": false
  },
  {
    "pmaid": "457",
    "locid": "1137",
    "name": "Highland Park Playground",
    "address": "1100 SW Cloverdale St",
    "zip_code": "98106",
    "x_coord": "-122.349034",
    "y_coord": "47.52738",
    "location_1": {
      "latitude": "47.52738",
      "longitude": "-122.349034"
    },
    "features": [
      "Art in the Park",
      "Baseball/Softball Fields",
      "Drinking fountains",
      "Play Area",
      "Restrooms",
      "Soccer Fields",
      "Spray Parks",
      "Tennis Courts"
    ],
    "feature_count": 8,
    "has_features": true
  },
  {
    "pmaid": "3979",
    "locid": "1384",
    "name": "Highland Place",
    "address": "93 Highland Dr",
    "zip_code": "98109",
    "x_coord": "-122.355466",
    "y_coord": "47.629656",
    "location_1": {
      "latitude": "47.629656",
      "longitude": "-122.355466"
    },
    "features": [],
    "feature_count": 0,
    "has_features": false
  },
  {
    "pmaid": "358",
    "locid": "1093",
    "name": "Hing Hay Park",
    "address": "423 Maynard Ave S",
    "zip_code": "98104",
    "x_coord": "-122.325435",
    "y_coord": "47.598609",
    "location_1": {
      "latitude": "47.598609",
      "longitude": "-122.325435"
    },
    "features": [
      "Adult Fitness Equipment",
      "Art in the Park",
      "Drinking fountains",
      "Picnic Sites"
    ],
    "feature_count": 4,
    "has_features": true
  },
  {
    "pmaid": "4413",
    "locid": "1389",
    "name": "Hitt's Hill Park",
    "address": "5234 37th Ave S",
    "zip_code": "98118",
    "x_coord": "-122.28455",
    "y_coord": "47.554207",
    "location_1": {
      "latitude": "47.554207",
      "longitude": "-122.28455"
    },
    "features": [
      "Trails"
    ],
    "feature_count": 1,
    "has_features": true
  },
  {
    "pmaid": "4426",
    "locid": "1392",
    "name": "Homer Harris Park",
    "address": "2401 E Howell St",
    "zip_code": "98122",
    "x_coord": "-122.300994",
    "y_coord": "47.617309",
    "location_1": {
      "latitude": "47.617309",
      "longitude": "-122.300994"
    },
    "features": [
      "Grills",
      "Play Area",
      "Views"
    ],
    "feature_count": 3,
    "has_features": true
  },
  {
    "pmaid": "43",
    "locid": "1394",
    "name": "Horiuchi Park",
    "address": "156 Boren Ave",
    "zip_code": "98122",
    "x_coord": "-122.318982",
    "y_coord": "47.603132",
    "location_1": {
      "latitude": "47.603132",
      "longitude": "-122.318982"
    },
    "features": [
      "Views"
    ],
    "feature_count": 1,
    "has_features": true
  },
  {
    "pmaid": "3927",
    "locid": "1396",
    "name": "Horton Hill Corridor",
    "address": "3298 36th Ave S",
    "zip_code": "98144",
    "x_coord": "-122.287187",
    "y_coord": "47.573846",
    "location_1": {
      "latitude": "47.573846",
      "longitude": "-122.287187"
    },
    "features": [],
    "feature_count": 0,
    "has_features": false
  },
  {
    "pmaid": "359",
    "locid": "1397",
    "name": "Howell Park",
    "address": "1740 Howell Pl",
    "zip_code": "98122",
    "x_coord": "-122.280313",
    "y_coord": "47.617518",
    "location_1": {
      "latitude": "47.617518",
      "longitude": "-122.280313"
    },
    "features": [
      "Views"
    ],
    "feature_count": 1,
    "has_features": true
  },
  {
    "pmaid": "4456",
    "locid": "1398",
    "name": "Hubbard Homestead",
    "address": "11203 5th Ave NE",
    "zip_code": "98125",
    "x_coord": "-122.324674",
    "y_coord": "47.709964",
    "location_1": {
      "latitude": "47.709964",
      "longitude": "-122.324674"
    },
    "features": [
      "Adult Fitness Equipment",
      "Skate Park"
    ],
    "feature_count": 2,
    "has_features": true
  },
  {
    "pmaid": "4032",
    "locid": "2391",
    "name": "Hunter Boulevard",
    "address": "3299 Hunter Blvd S",
    "zip_code": "98144",
    "x_coord": "-122.285153",
    "y_coord": "47.573877",
    "location_1": {
      "latitude": "47.573877",
      "longitude": "-122.285153"
    },
    "features": [],
    "feature_count": 0,
    "has_features": false
  },
  {
    "pmaid": "439",
    "locid": "1089",
    "name": "Hutchinson Playground",
    "address": "59th Ave S & S Norfolk St",
    "zip_code": "98118",
    "x_coord": "-122.260062",
    "y_coord": "47.514312",
    "location_1": {
      "latitude": "47.514312",
      "longitude": "-122.260062"
    },
    "features": [
      "Baseball/Softball Fields",
      "Basketball Courts",
      "Drinking fountains",
      "Play Area",
      "Restrooms",
      "Soccer Fields",
      "Tennis Courts"
    ],
    "feature_count": 7,
    "has_features": true
  },
  {
    "pmaid": "3905",
    "locid": "1399",
    "name": "Hyde Place",
    "address": "3811 E Madison St",
    "zip_code": "98112",
    "x_coord": "-122.282887",
    "y_coord": "47.632304",
    "location_1": {
      "latitude": "47.632304",
      "longitude": "-122.282887"
    },
    "features": [],
    "feature_count": 0,
    "has_features": false
  },
  {
    "pmaid": "4446",
    "locid": "1400",
    "name": "I-5 Colonnade",
    "address": "1701 Lakeview Blvd E",
    "zip_code": "98102",
    "x_coord": "-122.323409",
    "y_coord": "47.634898",
    "location_1": {
      "latitude": "47.634898",
      "longitude": "-122.323409"
    },
    "features": [
      "Art in the Park",
      "Dog Off Leash Areas"
    ],
    "feature_count": 2,
    "has_features": true
  },
  {
    "pmaid": "3887",
    "locid": "1821",
    "name": "Interbay Athletic Complex",
    "address": "3027 17th Ave W",
    "zip_code": "98119",
    "x_coord": "-122.379191",
    "y_coord": "47.647239",
    "location_1": {
      "latitude": "47.647239",
      "longitude": "-122.379191"
    },
    "features": [
      "Baseball/Softball Fields",
      "Drinking fountains",
      "Football Fields",
      "Restrooms",
      "Soccer Fields"
    ],
    "feature_count": 5,
    "has_features": true
  },
  {
    "pmaid": "313",
    "locid": "1407",
    "name": "Interbay Golf",
    "address": "2501 15th Ave W",
    "zip_code": "98119",
    "x_coord": "-122.378455",
    "y_coord": "47.643753",
    "location_1": {
      "latitude": "47.643753",
      "longitude": "-122.378455"
    },
    "features": [],
    "feature_count": 0,
    "has_features": false
  },
  {
    "pmaid": "3023",
    "locid": "1412",
    "name": "Interlaken Park",
    "address": "2451 Delmar Dr E",
    "zip_code": "98102",
    "x_coord": "-122.308316",
    "y_coord": "47.636257",
    "location_1": {
      "latitude": "47.636257",
      "longitude": "-122.308316"
    },
    "features": [
      "Trails"
    ],
    "feature_count": 1,
    "has_features": true
  },
  {
    "pmaid": "364",
    "locid": "1413",
    "name": "International Children's Park",
    "address": "700 S Lane St",
    "zip_code": "98104",
    "x_coord": "-122.323412",
    "y_coord": "47.596897",
    "location_1": {
      "latitude": "47.596897",
      "longitude": "-122.323412"
    },
    "features": [
      "Art in the Park",
      "Drinking fountains",
      "Play Area"
    ],
    "feature_count": 3,
    "has_features": true
  },
  {
    "pmaid": "4001",
    "locid": "1095",
    "name": "Inverness Ravine Park",
    "address": "8619 45th Ave NE",
    "zip_code": "98115",
    "x_coord": "-122.280809",
    "y_coord": "47.691145",
    "location_1": {
      "latitude": "47.691145",
      "longitude": "-122.280809"
    },
    "features": [],
    "feature_count": 0,
    "has_features": false
  },
  {
    "pmaid": "327",
    "locid": "1790",
    "name": "Jackson Park Golf Course",
    "address": "1100 NE 135th St",
    "zip_code": "98125",
    "x_coord": "-122.319103",
    "y_coord": "47.729254",
    "location_1": {
      "latitude": "47.729254",
      "longitude": "-122.319103"
    },
    "features": [
      "Art in the Park",
      "Trails"
    ],
    "feature_count": 2,
    "has_features": true
  },
  {
    "pmaid": "1000393",
    "locid": "0",
    "name": "Japanese Garden",
    "address": "1075 Lake Washington Blvd E",
    "zip_code": "98112",
    "x_coord": "-122.2952",
    "y_coord": "47.627312",
    "location_1": {
      "latitude": "47.627312",
      "longitude": "-122.2952"
    },
    "features": [],
    "feature_count": 0,
    "has_features": false
  },
  {
    "pmaid": "114",
    "locid": "1434",
    "name": "Jefferson Park",
    "address": "3801 Beacon Ave S",
    "zip_code": "98108",
    "x_coord": "-122.311441",
    "y_coord": "47.568067",
    "location_1": {
      "latitude": "47.568067",
      "longitude": "-122.311441"
    },
    "features": [
      "Art in the Park",
      "Baseball/Softball Fields",
      "Basketball Courts",
      "Drinking fountains",
      "Picnic Sites",
      "Play Area",
      "Restrooms",
      "Skate Park",
      "Soccer Fields",
      "Spray Parks",
      "Tennis Courts",
      "Trails",
      "Views"
    ],
    "feature_count": 13,
    "has_features": true
  },
  {
    "pmaid": "4153",
    "locid": "1791",
    "name": "Jefferson Park Golf Course",
    "address": "4101 Beacon Ave S",
    "zip_code": "98108",
    "x_coord": "-122.305242",
    "y_coord": "47.567202",
    "location_1": {
      "latitude": "47.567202",
      "longitude": "-122.305242"
    },
    "features": [
      "Drinking fountains"
    ],
    "feature_count": 1,
    "has_features": true
  },
  {
    "pmaid": "3121",
    "locid": "1437",
    "name": "Jimi Hendrix Park",
    "address": "2400 S Massachusetts St",
    "zip_code": "98144",
    "x_coord": "-122.300842",
    "y_coord": "47.588907",
    "location_1": {
      "latitude": "47.588907",
      "longitude": "-122.300842"
    },
    "features": [],
    "feature_count": 0,
    "has_features": false
  },
  {
    "pmaid": "429",
    "locid": "2560",
    "name": "John C. Little, Sr. Park",
    "address": "6961 37th Ave S",
    "zip_code": "98118",
    "x_coord": "-122.286686",
    "y_coord": "47.539048",
    "location_1": {
      "latitude": "47.539048",
      "longitude": "-122.286686"
    },
    "features": [
      "Adult Fitness Equipment",
      "Basketball Courts",
      "Drinking fountains",
      "Grills",
      "Picnic Sites",
      "Play Area",
      "Restrooms",
      "Spray Parks"
    ],
    "feature_count": 8,
    "has_features": true
  },
  {
    "pmaid": "4244",
    "locid": "2491",
    "name": "Judge Charles M. Stokes Overlook",
    "address": "20th Ave S & S Judkins St",
    "zip_code": "98144",
    "x_coord": "-122.306962",
    "y_coord": "47.591632",
    "location_1": {
      "latitude": "47.591632",
      "longitude": "-122.306962"
    },
    "features": [],
    "feature_count": 0,
    "has_features": false
  },
  {
    "pmaid": "397",
    "locid": "1097",
    "name": "Judkins Park and Playfield",
    "address": "2150 S Norman St",
    "zip_code": "98144",
    "x_coord": "-122.303951",
    "y_coord": "47.592425",
    "location_1": {
      "latitude": "47.592425",
      "longitude": "-122.303951"
    },
    "features": [
      "Baseball/Softball Fields",
      "Basketball Courts",
      "Football Fields",
      "Picnic Sites",
      "Play Area",
      "Restrooms",
      "Skate Park",
      "Soccer Fields",
      "Spray Parks",
      "Tennis Courts"
    ],
    "feature_count": 10,
    "has_features": true
  },
  {
    "pmaid": "4455",
    "locid": "1439",
    "name": "Junction Plaza",
    "address": "42nd Ave SW & SW Alaska St",
    "zip_code": "98116",
    "x_coord": "-122.385491",
    "y_coord": "47.561204",
    "location_1": {
      "latitude": "47.561204",
      "longitude": "-122.385491"
    },
    "features": [],
    "feature_count": 0,
    "has_features": false
  },
  {
    "pmaid": "3122",
    "locid": "1098",
    "name": "Katie Black's Garden",
    "address": "1150 S Atlantic St",
    "zip_code": "98144",
    "x_coord": "-122.317642",
    "y_coord": "47.590421",
    "location_1": {
      "latitude": "47.590421",
      "longitude": "-122.317642"
    },
    "features": [
      "Gardens"
    ],
    "feature_count": 1,
    "has_features": true
  },
  {
    "pmaid": "342",
    "locid": "2374",
    "name": "Kerry Park",
    "address": "211 W Highland Dr",
    "zip_code": "98119",
    "x_coord": "-122.359874",
    "y_coord": "47.629023",
    "location_1": {
      "latitude": "47.629023",
      "longitude": "-122.359874"
    },
    "features": [
      "Art in the Park",
      "Basketball Courts",
      "Drinking fountains",
      "Play Area",
      "Views"
    ],
    "feature_count": 5,
    "has_features": true
  },
  {
    "pmaid": "3880",
    "locid": "1440",
    "name": "Keystone Place",
    "address": "5664 Keystone Pl N",
    "zip_code": "98103",
    "x_coord": "-122.333769",
    "y_coord": "47.670304",
    "location_1": {
      "latitude": "47.670304",
      "longitude": "-122.333769"
    },
    "features": [],
    "feature_count": 0,
    "has_features": false
  },
  {
    "pmaid": "459",
    "locid": "1441",
    "name": "Kilbourne Park",
    "address": "9131 California Ave SW",
    "zip_code": "98136",
    "x_coord": "-122.388277",
    "y_coord": "47.52133",
    "location_1": {
      "latitude": "47.52133",
      "longitude": "-122.388277"
    },
    "features": [],
    "feature_count": 0,
    "has_features": false
  },
  {
    "pmaid": "4480",
    "locid": "1099",
    "name": "Kingfisher Natural Area on Thornton Creek",
    "address": "15th Ave NE & NE 105th St",
    "zip_code": "98125",
    "x_coord": "-122.312411",
    "y_coord": "47.704889",
    "location_1": {
      "latitude": "47.704889",
      "longitude": "-122.312411"
    },
    "features": [],
    "feature_count": 0,
    "has_features": false
  },
  {
    "pmaid": "314",
    "locid": "1442",
    "name": "Kinnear Park",
    "address": "899 W Olympic Pl",
    "zip_code": "98119",
    "x_coord": "-122.367207",
    "y_coord": "47.627317",
    "location_1": {
      "latitude": "47.627317",
      "longitude": "-122.367207"
    },
    "features": [
      "Dog Off Leash Areas",
      "Drinking fountains",
      "Play Area",
      "Restrooms",
      "Tennis Courts",
      "Trails",
      "Views"
    ],
    "feature_count": 7,
    "has_features": true
  },
  {
    "pmaid": "4468",
    "locid": "1444",
    "name": "Kirke Park",
    "address": "7028 9th Ave NW",
    "zip_code": "98117",
    "x_coord": "-122.368021",
    "y_coord": "47.680338",
    "location_1": {
      "latitude": "47.680338",
      "longitude": "-122.368021"
    },
    "features": [
      "Play Area"
    ],
    "feature_count": 1,
    "has_features": true
  },
  {
    "pmaid": "246",
    "locid": "1100",
    "name": "Kiwanis Memorial Preserve Park",
    "address": "4441 Brygger Dr W",
    "zip_code": "98199",
    "x_coord": "-122.401004",
    "y_coord": "47.66197",
    "location_1": {
      "latitude": "47.66197",
      "longitude": "-122.401004"
    },
    "features": [
      "Trails",
      "Views"
    ],
    "feature_count": 2,
    "has_features": true
  },
  {
    "pmaid": "4429",
    "locid": "1448",
    "name": "Kiwanis Memorial Preserve Park",
    "address": "4531 33rd Ave W",
    "zip_code": "98199",
    "x_coord": "-122.403237",
    "y_coord": "47.660251",
    "location_1": {
      "latitude": "47.660251",
      "longitude": "-122.403237"
    },
    "features": [],
    "feature_count": 0,
    "has_features": false
  },
  {
    "pmaid": "3915",
    "locid": "1449",
    "name": "Kobe Terrace",
    "address": "650 Main St",
    "zip_code": "98104",
    "x_coord": "-122.324494",
    "y_coord": "47.60042",
    "location_1": {
      "latitude": "47.60042",
      "longitude": "-122.324494"
    },
    "features": [],
    "feature_count": 0,
    "has_features": false
  },
  {
    "pmaid": "415",
    "locid": "1450",
    "name": "Kubota Garden",
    "address": "9817 55th Ave S",
    "zip_code": "98118",
    "x_coord": "-122.266125",
    "y_coord": "47.513543",
    "location_1": {
      "latitude": "47.513543",
      "longitude": "-122.266125"
    },
    "features": [
      "Gardens"
    ],
    "feature_count": 1,
    "has_features": true
  },
  {
    "pmaid": "333",
    "locid": "1457",
    "name": "Lake City Memorial Triangle",
    "address": "12356 Lake City Way NE",
    "zip_code": "98125",
    "x_coord": "-122.295266",
    "y_coord": "47.718819",
    "location_1": {
      "latitude": "47.718819",
      "longitude": "-122.295266"
    },
    "features": [],
    "feature_count": 0,
    "has_features": false
  },
  {
    "pmaid": "487",
    "locid": "1458",
    "name": "Lake City Mini Park",
    "address": "12359 Lake City Way NE",
    "zip_code": "98125",
    "x_coord": "-122.295875",
    "y_coord": "47.71911",
    "location_1": {
      "latitude": "47.71911",
      "longitude": "-122.295875"
    },
    "features": [],
    "feature_count": 0,
    "has_features": false
  },
  {
    "pmaid": "4439",
    "locid": "1459",
    "name": "Lake People Park (Xacua'bs)",
    "address": "3100 S Bradford st",
    "zip_code": "98108",
    "x_coord": "-122.292012",
    "y_coord": "47.569133",
    "location_1": {
      "latitude": "47.569133",
      "longitude": "-122.292012"
    },
    "features": [
      "Trails"
    ],
    "feature_count": 1,
    "has_features": true
  },
  {
    "pmaid": "344",
    "locid": "1460",
    "name": "Lake Union Park",
    "address": "860 Terry Ave N",
    "zip_code": "98109",
    "x_coord": "-122.338848",
    "y_coord": "47.627015",
    "location_1": {
      "latitude": "47.627015",
      "longitude": "-122.338848"
    },
    "features": [
      "Art in the Park",
      "Drinking fountains",
      "Hand Carry Boat Launches",
      "Spray Parks",
      "Views"
    ],
    "feature_count": 5,
    "has_features": true
  },
  {
    "pmaid": "411",
    "locid": "1462",
    "name": "Lakeridge Park",
    "address": "10201 Holyoke Way S",
    "zip_code": "98178",
    "x_coord": "-122.247429",
    "y_coord": "47.506033",
    "location_1": {
      "latitude": "47.506033",
      "longitude": "-122.247429"
    },
    "features": [
      "Trails"
    ],
    "feature_count": 1,
    "has_features": true
  },
  {
    "pmaid": "3972",
    "locid": "1140",
    "name": "Lakeridge Playfield",
    "address": "10145 Rainier Ave S",
    "zip_code": "98178",
    "x_coord": "-122.246841",
    "y_coord": "47.510319",
    "location_1": {
      "latitude": "47.510319",
      "longitude": "-122.246841"
    },
    "features": [
      "Baseball/Softball Fields",
      "Basketball Courts",
      "Drinking fountains",
      "Play Area",
      "Restrooms",
      "Tennis Courts"
    ],
    "feature_count": 6,
    "has_features": true
  },
  {
    "pmaid": "365",
    "locid": "1463",
    "name": "Lakeview Park",
    "address": "340 37th Ave E",
    "zip_code": "98112",
    "x_coord": "-122.284732",
    "y_coord": "47.62205",
    "location_1": {
      "latitude": "47.62205",
      "longitude": "-122.284732"
    },
    "features": [
      "Trails",
      "Views"
    ],
    "feature_count": 2,
    "has_features": true
  },
  {
    "pmaid": "366",
    "locid": "1464",
    "name": "Lakeview Place",
    "address": "1042 Lakeview Blvd E",
    "zip_code": "98102",
    "x_coord": "-122.325705",
    "y_coord": "47.62939",
    "location_1": {
      "latitude": "47.62939",
      "longitude": "-122.325705"
    },
    "features": [],
    "feature_count": 0,
    "has_features": false
  },
  {
    "pmaid": "4040",
    "locid": "1465",
    "name": "Lakewood Moorage",
    "address": "4400 Lake Washington Blvd S",
    "zip_code": "98118",
    "x_coord": "-122.268295",
    "y_coord": "47.562981",
    "location_1": {
      "latitude": "47.562981",
      "longitude": "-122.268295"
    },
    "features": [
      "Hand Carry Boat Launches"
    ],
    "feature_count": 1,
    "has_features": true
  },
  {
    "pmaid": "414",
    "locid": "2167",
    "name": "Lakewood Playfield",
    "address": "5013 S Angeline St",
    "zip_code": "98118",
    "x_coord": "-122.27006",
    "y_coord": "47.558831",
    "location_1": {
      "latitude": "47.558831",
      "longitude": "-122.27006"
    },
    "features": [
      "Baseball/Softball Fields",
      "Drinking fountains",
      "Play Area",
      "Restrooms",
      "Soccer Fields"
    ],
    "feature_count": 5,
    "has_features": true
  },
  {
    "pmaid": "4024",
    "locid": "1466",
    "name": "Lakewood Triangle",
    "address": "3114 Cascadia Ave S",
    "zip_code": "98144",
    "x_coord": "-122.28372",
    "y_coord": "47.576058",
    "location_1": {
      "latitude": "47.576058",
      "longitude": "-122.28372"
    },
    "features": [],
    "feature_count": 0,
    "has_features": false
  },
  {
    "pmaid": "3096",
    "locid": "0",
    "name": "Lambert Place",
    "address": "3800 E Madison St",
    "zip_code": "98112",
    "x_coord": "-122.283837",
    "y_coord": "47.632017",
    "location_1": {
      "latitude": "47.632017",
      "longitude": "-122.283837"
    },
    "features": [],
    "feature_count": 0,
    "has_features": false
  },
  {
    "pmaid": "3929",
    "locid": "1468",
    "name": "Landing Parkway",
    "address": "4099 S Horton St",
    "zip_code": "98144",
    "x_coord": "-122.283396",
    "y_coord": "47.573861",
    "location_1": {
      "latitude": "47.573861",
      "longitude": "-122.283396"
    },
    "features": [],
    "feature_count": 0,
    "has_features": false
  },
  {
    "pmaid": "340",
    "locid": "1142",
    "name": "Laurelhurst Playfield",
    "address": "4544 NE 41st St",
    "zip_code": "98105",
    "x_coord": "-122.278019",
    "y_coord": "47.65989",
    "location_1": {
      "latitude": "47.65989",
      "longitude": "-122.278019"
    },
    "features": [
      "Art in the Park",
      "Baseball/Softball Fields",
      "Drinking fountains",
      "Play Area",
      "Soccer Fields",
      "Tennis Courts"
    ],
    "feature_count": 6,
    "has_features": true
  },
  {
    "pmaid": "4162",
    "locid": "1053",
    "name": "Laurelhurst Triangle",
    "address": "3325 East Laurelhurst Dr NE",
    "zip_code": "98105",
    "x_coord": "-122.277487",
    "y_coord": "47.652696",
    "location_1": {
      "latitude": "47.652696",
      "longitude": "-122.277487"
    },
    "features": [],
    "feature_count": 0,
    "has_features": false
  },
  {
    "pmaid": "4482",
    "locid": "1102",
    "name": "LaVilla Meadows Natural Area on Thornton Creek",
    "address": "Ravenna Ave NE & NE 100th St",
    "zip_code": "98115",
    "x_coord": "-122.299926",
    "y_coord": "47.701262",
    "location_1": {
      "latitude": "47.701262",
      "longitude": "-122.299926"
    },
    "features": [],
    "feature_count": 0,
    "has_features": false
  },
  {
    "pmaid": "316",
    "locid": "1054",
    "name": "Lawton Park",
    "address": "4005 27th Ave W",
    "zip_code": "98199",
    "x_coord": "-122.391158",
    "y_coord": "47.655065",
    "location_1": {
      "latitude": "47.655065",
      "longitude": "-122.391158"
    },
    "features": [
      "Baseball/Softball Fields",
      "Play Area",
      "Soccer Fields",
      "Trails"
    ],
    "feature_count": 4,
    "has_features": true
  },
  {
    "pmaid": "367",
    "locid": "1057",
    "name": "Leschi Park",
    "address": "201 Lakeside Ave. S",
    "zip_code": "98122",
    "x_coord": "-122.286548",
    "y_coord": "47.600931",
    "location_1": {
      "latitude": "47.600931",
      "longitude": "-122.286548"
    },
    "features": [
      "Drinking fountains",
      "Hand Carry Boat Launches",
      "Motorized Boat Launches",
      "Play Area",
      "Restrooms",
      "Tennis Courts",
      "Trails",
      "Views"
    ],
    "feature_count": 8,
    "has_features": true
  },
  {
    "pmaid": "263",
    "locid": "1808",
    "name": "Leschi-Lake Dell Natural Area",
    "address": "3525 E Terrace St",
    "zip_code": "98122",
    "x_coord": "-122.287835",
    "y_coord": "47.604695",
    "location_1": {
      "latitude": "47.604695",
      "longitude": "-122.287835"
    },
    "features": [],
    "feature_count": 0,
    "has_features": false
  },
  {
    "pmaid": "4076",
    "locid": "1058",
    "name": "Lewis Park",
    "address": "1120 15th Ave S",
    "zip_code": "98144",
    "x_coord": "-122.314435",
    "y_coord": "47.592857",
    "location_1": {
      "latitude": "47.592857",
      "longitude": "-122.314435"
    },
    "features": [],
    "feature_count": 0,
    "has_features": false
  },
  {
    "pmaid": "4479",
    "locid": "1103",
    "name": "Licorice Fern Natural Area on Thornton Creek",
    "address": "12th Ave NE & NE 130th St",
    "zip_code": "98115",
    "x_coord": "-122.315433",
    "y_coord": "47.723106",
    "location_1": {
      "latitude": "47.723106",
      "longitude": "-122.315433"
    },
    "features": [],
    "feature_count": 0,
    "has_features": false
  },
  {
    "pmaid": "286",
    "locid": "1059",
    "name": "Licton Springs Park",
    "address": "9536 Ashworth Ave N",
    "zip_code": "98103",
    "x_coord": "-122.338735",
    "y_coord": "47.698542",
    "location_1": {
      "latitude": "47.698542",
      "longitude": "-122.338735"
    },
    "features": [
      "Drinking fountains",
      "Grills",
      "Play Area",
      "Restrooms",
      "Trails"
    ],
    "feature_count": 5,
    "has_features": true
  },
  {
    "pmaid": "460",
    "locid": "1060",
    "name": "Lincoln Park",
    "address": "8011 Fauntleroy Way SW",
    "zip_code": "98136",
    "x_coord": "-122.396012",
    "y_coord": "47.531176",
    "location_1": {
      "latitude": "47.531176",
      "longitude": "-122.396012"
    },
    "features": [
      "Art in the Park",
      "Baseball/Softball Fields",
      "Drinking fountains",
      "Football Fields",
      "Grills",
      "Hand Carry Boat Launches",
      "Picnic Sites",
      "Play Area",
      "Restrooms",
      "Soccer Fields",
      "Trails"
    ],
    "feature_count": 11,
    "has_features": true
  },
  {
    "pmaid": "4419",
    "locid": "1061",
    "name": "Linden Orchard Park",
    "address": "Linden Ave N & N 67th St",
    "zip_code": "98103",
    "x_coord": "-122.347727",
    "y_coord": "47.678016",
    "location_1": {
      "latitude": "47.678016",
      "longitude": "-122.347727"
    },
    "features": [
      "Play Area"
    ],
    "feature_count": 1,
    "has_features": true
  },
  {
    "pmaid": "297",
    "locid": "1064",
    "name": "Little Brook Park",
    "address": "14043 32nd Ave NE",
    "zip_code": "98125",
    "x_coord": "-122.294567",
    "y_coord": "47.731387",
    "location_1": {
      "latitude": "47.731387",
      "longitude": "-122.294567"
    },
    "features": [
      "Drinking fountains",
      "Play Area",
      "Restrooms"
    ],
    "feature_count": 3,
    "has_features": true
  },
  {
    "pmaid": "301",
    "locid": "1809",
    "name": "Llandover Woods Greenspace",
    "address": "14499 3rd Ave NW",
    "zip_code": "98177",
    "x_coord": "-122.364545",
    "y_coord": "47.733024",
    "location_1": {
      "latitude": "47.733024",
      "longitude": "-122.364545"
    },
    "features": [
      "Trails"
    ],
    "feature_count": 1,
    "has_features": true
  },
  {
    "pmaid": "264",
    "locid": "2437",
    "name": "Longfellow Creek Greenspace",
    "address": "Delridge Way SW & SW Graham St",
    "zip_code": "98106",
    "x_coord": "-122.363435",
    "y_coord": "47.530167",
    "location_1": {
      "latitude": "47.530167",
      "longitude": "-122.363435"
    },
    "features": [
      "Art in the Park",
      "Trails"
    ],
    "feature_count": 2,
    "has_features": true
  },
  {
    "pmaid": "362",
    "locid": "1066",
    "name": "Louisa Boren Park",
    "address": "1606 15th Ave E",
    "zip_code": "98112",
    "x_coord": "-122.311628",
    "y_coord": "47.635274",
    "location_1": {
      "latitude": "47.635274",
      "longitude": "-122.311628"
    },
    "features": [
      "Art in the Park",
      "Trails"
    ],
    "feature_count": 2,
    "has_features": true
  },
  {
    "pmaid": "461",
    "locid": "1067",
    "name": "Lowman Beach Park",
    "address": "7017 Beach Dr SW",
    "zip_code": "98136",
    "x_coord": "-122.396728",
    "y_coord": "47.540367",
    "location_1": {
      "latitude": "47.540367",
      "longitude": "-122.396728"
    },
    "features": [
      "Hand Carry Boat Launches",
      "Play Area",
      "Tennis Courts"
    ],
    "feature_count": 3,
    "has_features": true
  },
  {
    "pmaid": "289",
    "locid": "1146",
    "name": "Loyal Heights Playfield",
    "address": "2101 NW 77th St",
    "zip_code": "98117",
    "x_coord": "-122.38324",
    "y_coord": "47.684106",
    "location_1": {
      "latitude": "47.684106",
      "longitude": "-122.38324"
    },
    "features": [
      "Baseball/Softball Fields",
      "Basketball Courts",
      "Drinking fountains",
      "Football Fields",
      "Play Area",
      "Soccer Fields"
    ],
    "feature_count": 6,
    "has_features": true
  },
  {
    "pmaid": "4075",
    "locid": "2494",
    "name": "Lynn Street Mini Park",
    "address": "2291 Fairview Ave E",
    "zip_code": "98102",
    "x_coord": "-122.32975",
    "y_coord": "47.639849",
    "location_1": {
      "latitude": "47.639849",
      "longitude": "-122.32975"
    },
    "features": [
      "Drinking fountains",
      "Views"
    ],
    "feature_count": 2,
    "has_features": true
  },
  {
    "pmaid": "4422",
    "locid": "1069",
    "name": "MacLean Park",
    "address": "1922 Taylor Ave N",
    "zip_code": "98109",
    "x_coord": "-122.345276",
    "y_coord": "47.636191",
    "location_1": {
      "latitude": "47.636191",
      "longitude": "-122.345276"
    },
    "features": [
      "Views"
    ],
    "feature_count": 1,
    "has_features": true
  },
  {
    "pmaid": "369",
    "locid": "1071",
    "name": "Madison Park",
    "address": "4201 E Madison St",
    "zip_code": "98112",
    "x_coord": "-122.276602",
    "y_coord": "47.635779",
    "location_1": {
      "latitude": "47.635779",
      "longitude": "-122.276602"
    },
    "features": [
      "Drinking fountains",
      "Play Area",
      "Restrooms",
      "Swimming Beaches",
      "Tennis Courts",
      "Views"
    ],
    "feature_count": 6,
    "has_features": true
  },
  {
    "pmaid": "4441",
    "locid": "2509",
    "name": "Madison Park North Beach",
    "address": "2300 43rd Ave E",
    "zip_code": "98112",
    "x_coord": "-122.276118",
    "y_coord": "47.639084",
    "location_1": {
      "latitude": "47.639084",
      "longitude": "-122.276118"
    },
    "features": [
      "Play Area"
    ],
    "feature_count": 1,
    "has_features": true
  },
  {
    "pmaid": "4005",
    "locid": "1471",
    "name": "Madrona Briar Patch",
    "address": "1605 Madrona Dr",
    "zip_code": "98122",
    "x_coord": "-122.284261",
    "y_coord": "47.615231",
    "location_1": {
      "latitude": "47.615231",
      "longitude": "-122.284261"
    },
    "features": [],
    "feature_count": 0,
    "has_features": false
  },
  {
    "pmaid": "370",
    "locid": "1473",
    "name": "Madrona Park",
    "address": "853 Lake Washington Blvd",
    "zip_code": "98122",
    "x_coord": "-122.282679",
    "y_coord": "47.609299",
    "location_1": {
      "latitude": "47.609299",
      "longitude": "-122.282679"
    },
    "features": [
      "Drinking fountains",
      "Fishing piers",
      "Grills",
      "Picnic Sites",
      "Play Area",
      "Restrooms",
      "Swimming Beaches",
      "Trails",
      "Views"
    ],
    "feature_count": 9,
    "has_features": true
  },
  {
    "pmaid": "371",
    "locid": "1147",
    "name": "Madrona Playground",
    "address": "3211 E Spring St",
    "zip_code": "98122",
    "x_coord": "-122.289885",
    "y_coord": "47.611022",
    "location_1": {
      "latitude": "47.611022",
      "longitude": "-122.289885"
    },
    "features": [
      "Basketball Courts",
      "Drinking fountains",
      "Play Area",
      "Restrooms",
      "Soccer Fields",
      "Tennis Courts"
    ],
    "feature_count": 6,
    "has_features": true
  },
  {
    "pmaid": "2856",
    "locid": "1474",
    "name": "Madrona Ravine",
    "address": "3799 E Spring St",
    "zip_code": "98122",
    "x_coord": "-122.285412",
    "y_coord": "47.611456",
    "location_1": {
      "latitude": "47.611456",
      "longitude": "-122.285412"
    },
    "features": [],
    "feature_count": 0,
    "has_features": false
  },
  {
    "pmaid": "492",
    "locid": "1476",
    "name": "Magnolia Greenbelt",
    "address": "W Howe St & Dartmouth Ave W",
    "zip_code": "98199",
    "x_coord": "-122.389073",
    "y_coord": "47.636006",
    "location_1": {
      "latitude": "47.636006",
      "longitude": "-122.389073"
    },
    "features": [],
    "feature_count": 0,
    "has_features": false
  },
  {
    "pmaid": "747",
    "locid": "1477",
    "name": "Magnolia Manor Park",
    "address": "3500 28th Ave W",
    "zip_code": "98119",
    "x_coord": "-122.390877",
    "y_coord": "47.651085",
    "location_1": {
      "latitude": "47.651085",
      "longitude": "-122.390877"
    },
    "features": [
      "Dog Off Leash Areas"
    ],
    "feature_count": 1,
    "has_features": true
  },
  {
    "pmaid": "317",
    "locid": "1478",
    "name": "Magnolia Park",
    "address": "1461 Magnolia Blvd W",
    "zip_code": "98199",
    "x_coord": "-122.398993",
    "y_coord": "47.632366",
    "location_1": {
      "latitude": "47.632366",
      "longitude": "-122.398993"
    },
    "features": [
      "Drinking fountains",
      "Grills",
      "Picnic Sites",
      "Play Area",
      "Restrooms",
      "Tennis Courts",
      "Views"
    ],
    "feature_count": 7,
    "has_features": true
  },
  {
    "pmaid": "319",
    "locid": "2564",
    "name": "Magnolia Playfield",
    "address": "2518 34th Ave W",
    "zip_code": "98199",
    "x_coord": "-122.399472",
    "y_coord": "47.643746",
    "location_1": {
      "latitude": "47.643746",
      "longitude": "-122.399472"
    },
    "features": [
      "Baseball/Softball Fields",
      "Drinking fountains",
      "Play Area",
      "Restrooms",
      "Soccer Fields",
      "Tennis Courts"
    ],
    "feature_count": 6,
    "has_features": true
  },
  {
    "pmaid": "2970",
    "locid": "0",
    "name": "Magnolia Tidelands Park",
    "address": "W Ruffner to Elliott Bay Marina",
    "zip_code": "98144",
    "x_coord": "-122.391648",
    "y_coord": "47.630922",
    "location_1": {
      "latitude": "47.630922",
      "longitude": "-122.391648"
    },
    "features": [],
    "feature_count": 0,
    "has_features": false
  },
  {
    "pmaid": "111110",
    "locid": "0",
    "name": "Magnuson Park",
    "address": "7400 Sand Point Way NE",
    "zip_code": "98115",
    "x_coord": "-122.255084",
    "y_coord": "47.680304",
    "location_1": {
      "latitude": "47.680304",
      "longitude": "-122.255084"
    },
    "features": [],
    "feature_count": 0,
    "has_features": false
  },
  {
    "pmaid": "4434",
    "locid": "1522",
    "name": "Maple Leaf Community Garden",
    "address": "529 NE 103rd St",
    "zip_code": "98125",
    "x_coord": "-122.322269",
    "y_coord": "47.70326",
    "location_1": {
      "latitude": "47.70326",
      "longitude": "-122.322269"
    },
    "features": [],
    "feature_count": 0,
    "has_features": false
  },
  {
    "pmaid": "3881",
    "locid": "1105",
    "name": "Maple Leaf Resevoir Park",
    "address": "1020 NE 82nd St",
    "zip_code": "98115",
    "x_coord": "-122.315613",
    "y_coord": "47.689015",
    "location_1": {
      "latitude": "47.689015",
      "longitude": "-122.315613"
    },
    "features": [
      "Art in the Park",
      "Baseball/Softball Fields",
      "Play Area",
      "Restrooms",
      "Soccer Fields"
    ],
    "feature_count": 5,
    "has_features": true
  },
  {
    "pmaid": "1630",
    "locid": "1523",
    "name": "Maple School Ravine",
    "address": "1950 S Graham St",
    "zip_code": "98108",
    "x_coord": "-122.308342",
    "y_coord": "47.551071",
    "location_1": {
      "latitude": "47.551071",
      "longitude": "-122.308342"
    },
    "features": [],
    "feature_count": 0,
    "has_features": false
  },